*2D
$GPGGA,235942.800,,,,,0,00,,,M,,M,,*7B
$GPGSA,A,1,,,,,,,,,,,,,,,*1E
$GPRMC,235942.800,V,,,,,0.00,0.00,050180,,,N*42
$GPVTG,0.00,T,,M,0.00,N,0.00,K,N*32
$GPGGA,235943.800,,,,,0,00,,,M,,M,,*7A
$GPGSA,A,1,,,,,,,,,,,,,,,*1E
$GPRMC,235943.800,V,,,,,0.00,0.00,050180,,,N*43
$GPVTG,0.00,T,,M,0.00,N,0.00,K,N*32
$GPGGA,235944.799,,,,,0,00,,,M,,M,,*72
$GPGSA,A,1,,,,,,,,,,,,,,,*1E
$GPRMC,235944.799,V,,,,,0.00,0.00,050180,,,N*4B
$GPVTG,0.00,T,,M,0.00,N,0.00,K,N*32
$GPGGA,235945.799,,,,,0,00,,,M,,M,,*73
$GPGSA,A,1,,,,,,,,,,,,,,,*1E
$GPRMC,235945.799,V,,,,,0.00,0.00,050180,,,N*4A
$GPVTG,0.00,T,,M,0.00,N,0.00,K,N*32
$GPGGA,235946.799,,,,,0,00,,,M,,M,,*70
$GPGSA,A,1,,,,,,,,,,,,,,,*1E
$GPGSV,1,1,01,06,,,38*75
$GPRMC,235946.799,V,,,,,0.00,0.00,050180,,,N*49
$GPVTG,0.00,T,,M,0.00,N,0.00,K,N*32
$GPGGA,235947.799,,,,,0,00,,,M,,M,,*71
$GPGSA,A,1,,,,,,,,,,,,,,,*1E
$GPRMC,235947.799,V,,,,,0.00,0.00,050180,,,N*48
$GPVTG,0.00,T,,M,0.00,N,0.00,K,N*32
$GPGGA,235948.799,,,,,0,00,,,M,,M,,*7E
$GPGSA,A,1,,,,,,,,,,,,,,,*1E
$GPRMC,235948.799,V,,,,,0.00,0.00,050180,,,N*47
$GPVTG,0.00,T,,M,0.00,N,0.00,K,N*32
$GPGGA,235949.799,,,,,0,00,,,M,,M,,*7F
$GPGSA,A,1,,,,,,,,,,,,,,,*1E
$GPRMC,235949.799,V,,,,,0.00,0.00,050180,,,N*46
$GPVTG,0.00,T,,M,0.00,N,0.00,K,N*32
$GPGGA,235950.800,,,,,0,00,,,M,,M,,*78
$GPGSA,A,1,,,,,,,,,,,,,,,*1E
$GPRMC,235950.800,V,,,,,0.00,0.00,050180,,,N*41
$GPVTG,0.00,T,,M,0.00,N,0.00,K,N*32
$GPGGA,235951.800,,,,,0,00,,,M,,M,,*79
$GPGSA,A,1,,,,,,,,,,,,,,,*1E
$GPGSV,1,1,01,06,,,38*75
$GPRMC,235951.800,V,,,,,0.00,0.00,050180,,,N*40
$GPVTG,0.00,T,,M,0.00,N,0.00,K,N*32
$GPGGA,235952.800,,,,,0,00,,,M,,M,,*7A
$GPGSA,A,1,,,,,,,,,,,,,,,*1E
$GPRMC,235952.800,V,,,,,0.00,0.00,050180,,,N*43
$GPVTG,0.00,T,,M,0.00,N,0.00,K,N*32
$GPGGA,235953.800,,,,,0,00,,,M,,M,,*7B
$GPGSA,A,1,,,,,,,,,,,,,,,*1E
$GPRMC,235953.800,V,,,,,0.00,0.00,050180,,,N*42
$GPVTG,0.00,T,,M,0.00,N,0.00,K,N*32
$GPGGA,040756.092,,,,,0,00,,,M,,M,,*73
$GPGSA,A,1,,,,,,,,,,,,,,,*1E
$GPRMC,040756.092,V,,,,,0.00,0.00,090180,,,N*46
$GPVTG,0.00,T,,M,0.00,N,0.00,K,N*32
$GPGGA,040757.092,,,,,0,00,,,M,,M,,*72
$GPGSA,A,1,,,,,,,,,,,,,,,*1E
$GPRMC,040757.092,V,,,,,0.00,0.00,090180,,,N*47
$GPVTG,0.00,T,,M,0.00,N,0.00,K,N*32
$GPGGA,040758.092,,,,,0,00,,,M,,M,,*7D
$GPGSA,A,1,,,,,,,,,,,,,,,*1E
$GPGSV,1,1,01,06,,,38*75
$GPRMC,040758.092,V,,,,,0.00,0.00,090180,,,N*48
$GPVTG,0.00,T,,M,0.00,N,0.00,K,N*32
$GPGGA,040759.092,,,,,0,00,,,M,,M,,*7C
$GPGSA,A,1,,,,,,,,,,,,,,,*1E
$GPRMC,040759.092,V,,,,,0.00,0.00,090180,,,N*49
$GPVTG,0.00,T,,M,0.00,N,0.00,K,N*32
$GPGGA,040800.092,,,,,0,00,,,M,,M,,*7F
$GPGSA,A,1,,,,,,,,,,,,,,,*1E
$GPRMC,040800.092,V,,,,,0.00,0.00,090180,,,N*4A
$GPVTG,0.00,T,,M,0.00,N,0.00,K,N*32
$GPGGA,040801.092,,,,,0,00,,,M,,M,,*7E
$GPGSA,A,1,,,,,,,,,,,,,,,*1E
$GPRMC,040801.092,V,,,,,0.00,0.00,090180,,,N*4B
$GPVTG,0.00,T,,M,0.00,N,0.00,K,N*32
$GPGGA,040802.092,,,,,0,00,,,M,,M,,*7D
$GPGSA,A,1,,,,,,,,,,,,,,,*1E
$GPRMC,040802.092,V,,,,,0.00,0.00,090180,,,N*48
$GPVTG,0.00,T,,M,0.00,N,0.00,K,N*32
$GPGGA,040803.092,,,,,0,00,,,M,,M,,*7C
$GPGSA,A,1,,,,,,,,,,,,,,,*1E
$GPGSV,1,1,01,06,,,38*75
$GPRMC,040803.092,V,,,,,0.00,0.00,090180,,,N*49
$GPVTG,0.00,T,,M,0.00,N,0.00,K,N*32
$GPGGA,040804.092,,,,,0,00,,,M,,M,,*7B
$GPGSA,A,1,,,,,,,,,,,,,,,*1E
$GPRMC,040804.092,V,,,,,0.00,0.00,090180,,,N*4E
$GPVTG,0.00,T,,M,0.00,N,0.00,K,N*32
$GPGGA,040805.092,,,,,0,00,,,M,,M,,*7A
$GPGSA,A,1,,,,,,,,,,,,,,,*1E
$GPRMC,040805.092,V,,,,,0.00,0.00,090180,,,N*4F
$GPVTG,0.00,T,,M,0.00,N,0.00,K,N*32
$GPGGA,040806.088,,,,,0,00,,,M,,M,,*72
$GPGSA,A,1,,,,,,,,,,,,,,,*1E
$GPRMC,040806.088,V,,,,,0.00,0.00,090180,,,N*47
$GPVTG,0.00,T,,M,0.00,N,0.00,K,N*32
$GPGGA,040807.088,,,,,0,00,,,M,,M,,*73
$GPGSA,A,1,,,,,,,,,,,,,,,*1E
$GPRMC,040807.088,V,,,,,0.00,0.00,090180,,,N*46
$GPVTG,0.00,T,,M,0.00,N,0.00,K,N*32
$GPGGA,040808.088,,,,,0,00,,,M,,M,,*7C
$GPGSA,A,1,,,,,,,,,,,,,,,*1E
$GPGSV,1,1,02,17,,,31,06,,,37*7D
$GPRMC,040808.088,V,,,,,0.00,0.00,090180,,,N*49
$GPVTG,0.00,T,,M,0.00,N,0.00,K,N*32
$GPGGA,040809.088,,,,,0,00,,,M,,M,,*7D
$GPGSA,A,1,,,,,,,,,,,,,,,*1E
$GPRMC,040809.088,V,,,,,0.00,0.00,090180,,,N*48
$GPVTG,0.00,T,,M,0.00,N,0.00,K,N*32
$GPGGA,040810.088,,,,,0,00,,,M,,M,,*75
$GPGSA,A,1,,,,,,,,,,,,,,,*1E
$GPRMC,040810.088,V,,,,,0.00,0.00,090180,,,N*40
$GPVTG,0.00,T,,M,0.00,N,0.00,K,N*32
$GPGGA,040811.088,,,,,0,00,,,M,,M,,*74
$GPGSA,A,1,,,,,,,,,,,,,,,*1E
$GPRMC,040811.088,V,,,,,0.00,0.00,090180,,,N*41
$GPVTG,0.00,T,,M,0.00,N,0.00,K,N*32
$GPGGA,040812.088,,,,,0,00,,,M,,M,,*77
$GPGSA,A,1,,,,,,,,,,,,,,,*1E
$GPRMC,040812.088,V,,,,,0.00,0.00,090180,,,N*42
$GPVTG,0.00,T,,M,0.00,N,0.00,K,N*32
$GPGGA,040812.309,,,,,0,00,,,M,,M,,*7D
$GPGSA,A,1,,,,,,,,,,,,,,,*1E
$GPGSV,1,1,02,17,,,31,06,,,36*7C
$GPRMC,040812.309,V,,,,,0.00,0.00,090180,,,N*48
$GPVTG,0.00,T,,M,0.00,N,0.00,K,N*32
$GPGGA,040813.309,,,,,0,00,,,M,,M,,*7C
$GPGSA,A,1,,,,,,,,,,,,,,,*1E
$GPRMC,040813.309,V,,,,,0.00,0.00,090180,,,N*49
$GPVTG,0.00,T,,M,0.00,N,0.00,K,N*32
$GPGGA,040814.309,,,,,0,00,,,M,,M,,*7B
$GPGSA,A,1,,,,,,,,,,,,,,,*1E
$GPRMC,040814.309,V,,,,,0.00,0.00,090180,,,N*4E
$GPVTG,0.00,T,,M,0.00,N,0.00,K,N*32
$GPGGA,040815.309,,,,,0,00,,,M,,M,,*7A
$GPGSA,A,1,,,,,,,,,,,,,,,*1E
$GPRMC,040815.309,V,,,,,0.00,0.00,090180,,,N*4F
$GPVTG,0.00,T,,M,0.00,N,0.00,K,N*32
$GPGGA,040816.309,,,,,0,00,,,M,,M,,*79
$GPGSA,A,1,,,,,,,,,,,,,,,*1E
$GPRMC,040816.309,V,,,,,0.00,0.00,090180,,,N*4C
$GPVTG,0.00,T,,M,0.00,N,0.00,K,N*32
$GPGGA,040817.309,,,,,0,00,,,M,,M,,*78
$GPGSA,A,1,,,,,,,,,,,,,,,*1E
$GPGSV,1,1,03,17,,,34,06,,,37,24,,,28*75
$GPRMC,040817.309,V,,,,,0.00,0.00,090180,,,N*4D
$GPVTG,0.00,T,,M,0.00,N,0.00,K,N*32
$GPGGA,040818.087,,,,,0,00,,,M,,M,,*72
$GPGSA,A,1,,,,,,,,,,,,,,,*1E
$GPRMC,040818.087,V,,,,,0.00,0.00,080317,,,N*4A
$GPVTG,0.00,T,,M,0.00,N,0.00,K,N*32
$GPGGA,040818.308,,,,,0,00,,,M,,M,,*76
$GPGSA,A,1,,,,,,,,,,,,,,,*1E
$GPRMC,040818.308,V,,,,,0.00,0.00,080317,,,N*4E
$GPVTG,0.00,T,,M,0.00,N,0.00,K,N*32
$GPGGA,040819.308,,,,,0,00,,,M,,M,,*77
$GPGSA,A,1,,,,,,,,,,,,,,,*1E
$GPRMC,040819.308,V,,,,,0.00,0.00,080317,,,N*4F
$GPVTG,0.00,T,,M,0.00,N,0.00,K,N*32
$GPGGA,040820.308,,,,,0,00,,,M,,M,,*7D
$GPGSA,A,1,,,,,,,,,,,,,,,*1E
$GPRMC,040820.308,V,,,,,0.00,0.00,080317,,,N*45
$GPVTG,0.00,T,,M,0.00,N,0.00,K,N*32
$GPGGA,040821.308,,,,,0,00,,,M,,M,,*7C
$GPGSA,A,1,,,,,,,,,,,,,,,*1E
$GPGSV,1,1,03,17,,,34,06,,,37,24,,,27*7A
$GPRMC,040821.308,V,,,,,0.00,0.00,080317,,,N*44
$GPVTG,0.00,T,,M,0.00,N,0.00,K,N*32
$GPGGA,040822.308,,,,,0,00,,,M,,M,,*7F
$GPGSA,A,1,,,,,,,,,,,,,,,*1E
$GPRMC,040822.308,V,,,,,0.00,0.00,080317,,,N*47
$GPVTG,0.00,T,,M,0.00,N,0.00,K,N*32
$GPGGA,040823.308,,,,,0,00,,,M,,M,,*7E
$GPGSA,A,1,,,,,,,,,,,,,,,*1E
$GPRMC,040823.308,V,,,,,0.00,0.00,080317,,,N*46
$GPVTG,0.00,T,,M,0.00,N,0.00,K,N*32
$GPGGA,040824.087,,,,,0,00,,,M,,M,,*7D
$GPGSA,A,1,,,,,,,,,,,,,,,*1E
$GPRMC,040824.087,V,,,,,0.00,0.00,080317,,,N*45
$GPVTG,0.00,T,,M,0.00,N,0.00,K,N*32
$GPGGA,040824.308,,,,,0,00,,,M,,M,,*79
$GPGSA,A,1,,,,,,,,,,,,,,,*1E
$GPRMC,040824.308,V,,,,,0.00,0.00,080317,,,N*41
$GPVTG,0.00,T,,M,0.00,N,0.00,K,N*32
$GPGGA,040825.308,,,,,0,00,,,M,,M,,*78
$GPGSA,A,1,,,,,,,,,,,,,,,*1E
$GPGSV,1,1,03,17,,,33,06,,,37,24,,,26*7C
$GPRMC,040825.308,V,,,,,0.00,0.00,080317,,,N*40
$GPVTG,0.00,T,,M,0.00,N,0.00,K,N*32
$GPGGA,040826.308,,,,,0,00,,,M,,M,,*7B
$GPGSA,A,1,,,,,,,,,,,,,,,*1E
$GPRMC,040826.308,V,,,,,0.00,0.00,080317,,,N*43
$GPVTG,0.00,T,,M,0.00,N,0.00,K,N*32
$GPGGA,040827.308,,,,,0,00,,,M,,M,,*7A
$GPGSA,A,1,,,,,,,,,,,,,,,*1E
$GPRMC,040827.308,V,,,,,0.00,0.00,080317,,,N*42
$GPVTG,0.00,T,,M,0.00,N,0.00,K,N*32
$GPGGA,040828.308,,,,,0,00,,,M,,M,,*75
$GPGSA,A,1,,,,,,,,,,,,,,,*1E
$GPRMC,040828.308,V,,,,,0.00,0.00,080317,,,N*4D
$GPVTG,0.00,T,,M,0.00,N,0.00,K,N*32
$GPGGA,040829.308,,,,,0,00,,,M,,M,,*74
$GPGSA,A,1,,,,,,,,,,,,,,,*1E
$GPRMC,040829.308,V,,,,,0.00,0.00,080317,,,N*4C
$GPVTG,0.00,T,,M,0.00,N,0.00,K,N*32
$GPGGA,040830.087,,,,,0,00,,,M,,M,,*78
$GPGSA,A,1,,,,,,,,,,,,,,,*1E
$GPGSV,1,1,03,17,,,31,06,,,35,24,,,26*7C
$GPRMC,040830.087,V,,,,,0.00,0.00,080317,,,N*40
$GPVTG,0.00,T,,M,0.00,N,0.00,K,N*32
$GPGGA,040830.308,,,,,0,00,,,M,,M,,*7C
$GPGSA,A,1,,,,,,,,,,,,,,,*1E
$GPRMC,040830.308,V,,,,,0.00,0.00,080317,,,N*44
$GPVTG,0.00,T,,M,0.00,N,0.00,K,N*32
$GPGGA,040831.308,,,,,0,00,,,M,,M,,*7D
$GPGSA,A,1,,,,,,,,,,,,,,,*1E
$GPRMC,040831.308,V,,,,,0.00,0.00,080317,,,N*45
$GPVTG,0.00,T,,M,0.00,N,0.00,K,N*32
$GPGGA,040832.308,,,,,0,00,,,M,,M,,*7E
$GPGSA,A,1,,,,,,,,,,,,,,,*1E
$GPRMC,040832.308,V,,,,,0.00,0.00,080317,,,N*46
$GPVTG,0.00,T,,M,0.00,N,0.00,K,N*32
$GPGGA,040833.308,,,,,0,00,,,M,,M,,*7F
$GPGSA,A,1,,,,,,,,,,,,,,,*1E
$GPRMC,040833.308,V,,,,,0.00,0.00,080317,,,N*47
$GPVTG,0.00,T,,M,0.00,N,0.00,K,N*32
$GPGGA,040834.308,,,,,0,00,,,M,,M,,*78
$GPGSA,A,1,,,,,,,,,,,,,,,*1E
$GPGSV,1,1,03,17,,,30,06,,,35,24,,,27*7C
$GPRMC,040834.308,V,,,,,0.00,0.00,080317,,,N*40
$GPVTG,0.00,T,,M,0.00,N,0.00,K,N*32
$GPGGA,040835.308,,,,,0,00,,,M,,M,,*79
$GPGSA,A,1,,,,,,,,,,,,,,,*1E
$GPRMC,040835.308,V,,,,,0.00,0.00,080317,,,N*41
$GPVTG,0.00,T,,M,0.00,N,0.00,K,N*32
$GPGGA,040836.086,,,,,0,00,,,M,,M,,*7F
$GPGSA,A,1,,,,,,,,,,,,,,,*1E
$GPRMC,040836.086,V,,,,,0.00,0.00,080317,,,N*47
$GPVTG,0.00,T,,M,0.00,N,0.00,K,N*32
$GPGGA,040836.305,,,,,0,00,,,M,,M,,*77
$GPGSA,A,1,,,,,,,,,,,,,,,*1E
$GPRMC,040836.305,V,,,,,0.00,0.00,080317,,,N*4F
$GPVTG,0.00,T,,M,0.00,N,0.00,K,N*32
$GPGGA,040837.305,,,,,0,00,,,M,,M,,*76
$GPGSA,A,1,,,,,,,,,,,,,,,*1E
$GPRMC,040837.305,V,,,,,0.00,0.00,080317,,,N*4E
$GPVTG,0.00,T,,M,0.00,N,0.00,K,N*32
$GPGGA,040838.305,,,,,0,00,,,M,,M,,*79
$GPGSA,A,1,,,,,,,,,,,,,,,*1E
$GPGSV,1,1,03,17,,,31,06,,,35,24,,,27*7D
$GPRMC,040838.305,V,,,,,0.00,0.00,080317,,,N*41
$GPVTG,0.00,T,,M,0.00,N,0.00,K,N*32
$GPGGA,040839.305,,,,,0,00,,,M,,M,,*78
$GPGSA,A,1,,,,,,,,,,,,,,,*1E
$GPRMC,040839.305,V,,,,,0.00,0.00,080317,,,N*40
$GPVTG,0.00,T,,M,0.00,N,0.00,K,N*32
$GPGGA,040840.305,,,,,0,00,,,M,,M,,*76
$GPGSA,A,1,,,,,,,,,,,,,,,*1E
$GPRMC,040840.305,V,,,,,0.00,0.00,080317,,,N*4E
$GPVTG,0.00,T,,M,0.00,N,0.00,K,N*32
$GPGGA,040841.305,,,,,0,00,,,M,,M,,*77
$GPGSA,A,1,,,,,,,,,,,,,,,*1E
$GPRMC,040841.305,V,,,,,0.00,0.00,080317,,,N*4F
$GPVTG,0.00,T,,M,0.00,N,0.00,K,N*32
$GPGGA,040842.104,,,,,0,00,,,M,,M,,*77
$GPGSA,A,1,,,,,,,,,,,,,,,*1E
$GPRMC,040842.104,V,,,,,0.00,0.00,080317,,,N*4F
$GPVTG,0.00,T,,M,0.00,N,0.00,K,N*32
$GPGGA,040843.104,,,,,0,00,,,M,,M,,*76
$GPGSA,A,1,,,,,,,,,,,,,,,*1E
$GPGSV,1,1,03,17,,,30,06,,,35,24,,,27*7C
$GPRMC,040843.104,V,,,,,0.00,0.00,080317,,,N*4E
$GPVTG,0.00,T,,M,0.00,N,0.00,K,N*32
$GPGGA,040844.104,,,,,0,00,,,M,,M,,*71
$GPGSA,A,1,,,,,,,,,,,,,,,*1E
$GPRMC,040844.104,V,,,,,0.00,0.00,080317,,,N*49
$GPVTG,0.00,T,,M,0.00,N,0.00,K,N*32
$GPGGA,040845.104,,,,,0,00,,,M,,M,,*70
$GPGSA,A,1,,,,,,,,,,,,,,,*1E
$GPRMC,040845.104,V,,,,,0.00,0.00,080317,,,N*48
$GPVTG,0.00,T,,M,0.00,N,0.00,K,N*32
$GPGGA,040846.104,,,,,0,00,,,M,,M,,*73
$GPGSA,A,1,,,,,,,,,,,,,,,*1E
$GPRMC,040846.104,V,,,,,0.00,0.00,080317,,,N*4B
$GPVTG,0.00,T,,M,0.00,N,0.00,K,N*32
$GPGGA,040847.104,,,,,0,00,,,M,,M,,*72
$GPGSA,A,1,,,,,,,,,,,,,,,*1E
$GPRMC,040847.104,V,,,,,0.00,0.00,080317,,,N*4A
$GPVTG,0.00,T,,M,0.00,N,0.00,K,N*32
$GPGGA,040848.097,,,,,0,03,,,M,,M,,*75
$GPGSA,A,1,,,,,,,,,,,,,,,*1E
$GPGSV,1,1,03,24,,,28,17,,,29,06,,,36*78
$GPRMC,040848.097,V,,,,,0.27,112.66,080317,,,N*49
$GPVTG,112.66,T,,M,0.27,N,0.50,K,N*30
$GPGGA,040849.097,,,,,0,03,,,M,,M,,*74
$GPGSA,A,1,,,,,,,,,,,,,,,*1E
$GPRMC,040849.097,V,,,,,0.44,77.46,080317,,,N*7D
$GPVTG,77.46,T,,M,0.44,N,0.81,K,N*09
$GPGGA,040851.000,,,,,0,03,,,M,,M,,*73
$GPGSA,A,1,,,,,,,,,,,,,,,*1E
$GPRMC,040851.000,V,,,,,0.32,140.16,080317,,,N*4B
$GPVTG,140.16,T,,M,0.32,N,0.60,K,N*37
$GPGGA,040852.000,3325.5671,N,11214.1705,W,1,03,3.35,176.9,M,-26.8,M,,*5D
$GPGSA,A,2,17,06,24,,,,,,,,,,3.50,3.35,1.00*07
$GPRMC,040852.000,A,3325.5671,N,11214.1705,W,0.49,210.81,080317,,,A*7B
$GPVTG,210.81,T,,M,0.49,N,0.90,K,A*33
$GPGGA,040853.000,3325.5670,N,11214.1703,W,1,03,3.35,176.9,M,-26.8,M,,*5B
$GPGSA,A,2,17,06,24,,,,,,,,,,3.50,3.35,1.00*07
$GPRMC,040853.000,A,3325.5670,N,11214.1703,W,0.26,181.76,080317,,,A*77
$GPVTG,181.76,T,,M,0.26,N,0.48,K,A*3C
$GPGGA,040854.000,3325.5664,N,11214.1699,W,1,03,3.35,176.9,M,-26.8,M,,*5B
$GPGSA,A,2,17,06,24,,,,,,,,,,3.50,3.35,1.00*07
$GPGSV,1,1,03,06,74,092,37,24,47,279,28,17,35,050,30*45
$GPRMC,040854.000,A,3325.5664,N,11214.1699,W,0.53,169.11,080317,,,A*72
$GPVTG,169.11,T,,M,0.53,N,0.98,K,A*34
$GPGGA,040854.217,3325.5659,N,11214.1696,W,1,03,3.35,176.9,M,-26.8,M,,*5E
$GPGSA,A,2,17,06,24,,,,,,,,,,3.50,3.35,1.00*07
$GPRMC,040854.217,A,3325.5659,N,11214.1696,W,0.56,161.11,080317,,,A*7A
$GPVTG,161.11,T,,M,0.56,N,1.05,K,A*3C
$GPGGA,040856.000,3325.5652,N,11214.1694,W,1,03,3.36,176.9,M,-26.8,M,,*52
$GPGSA,A,2,17,06,24,,,,,,,,,,3.50,3.36,1.00*04
$GPRMC,040856.000,A,3325.5652,N,11214.1694,W,0.64,166.16,080317,,,A*74
$GPVTG,166.16,T,,M,0.64,N,1.18,K,A*31
$GPGGA,040857.000,3325.5652,N,11214.1696,W,1,03,3.36,176.9,M,-26.8,M,,*51
$GPGSA,A,2,17,06,24,,,,,,,,,,3.50,3.36,1.00*04
$GPRMC,040857.000,A,3325.5652,N,11214.1696,W,0.53,188.59,080317,,,A*78
$GPVTG,188.59,T,,M,0.53,N,0.99,K,A*36
$GPGGA,040858.000,3325.5651,N,11214.1695,W,1,03,3.36,176.9,M,-26.8,M,,*5E
$GPGSA,A,2,17,06,24,,,,,,,,,,3.50,3.36,1.00*04
$GPRMC,040858.000,A,3325.5651,N,11214.1695,W,0.41,169.77,080317,,,A*77
$GPVTG,169.77,T,,M,0.41,N,0.76,K,A*37
$GPGGA,040859.000,3325.5655,N,11214.1696,W,1,03,3.36,176.9,M,-26.8,M,,*58
$GPGSA,A,2,17,06,24,,,,,,,,,,3.51,3.36,1.00*05
$GPGSV,1,1,03,06,74,091,37,24,47,279,29,17,35,050,30*47
$GPRMC,040859.000,A,3325.5655,N,11214.1696,W,0.29,163.00,080317,,,A*75
$GPVTG,163.00,T,,M,0.29,N,0.54,K,A*33
$GPGGA,040900.000,3325.5655,N,11214.1696,W,1,03,3.37,176.9,M,-26.8,M,,*54
$GPGSA,A,2,17,06,24,,,,,,,,,,3.51,3.37,1.00*04
$GPRMC,040900.000,A,3325.5655,N,11214.1696,W,0.42,165.96,080317,,,A*7C
$GPVTG,165.96,T,,M,0.42,N,0.77,K,A*36
$GPGGA,040900.205,3325.5657,N,11214.1698,W,1,03,3.36,176.9,M,-26.8,M,,*5E
$GPGSA,A,2,17,06,24,,,,,,,,,,3.51,3.36,1.00*05
$GPRMC,040900.205,A,3325.5657,N,11214.1698,W,0.42,172.09,080317,,,A*77
$GPVTG,172.09,T,,M,0.42,N,0.78,K,A*39
$GPGGA,040902.000,3325.5655,N,11214.1698,W,1,03,3.37,176.9,M,-26.8,M,,*58
$GPGSA,A,2,17,06,24,,,,,,,,,,3.51,3.37,1.00*04
$GPRMC,040902.000,A,3325.5655,N,11214.1698,W,0.42,176.89,080317,,,A*7C
$GPVTG,176.89,T,,M,0.42,N,0.78,K,A*35
$GPGGA,040903.000,3325.5659,N,11214.1700,W,1,03,3.37,176.9,M,-26.8,M,,*55
$GPGSA,A,2,17,06,24,,,,,,,,,,3.51,3.37,1.00*04
$GPRMC,040903.000,A,3325.5659,N,11214.1700,W,0.19,187.53,080317,,,A*76
$GPVTG,187.53,T,,M,0.19,N,0.36,K,A*38
$GPGGA,040904.000,3325.5660,N,11214.1701,W,1,03,3.37,176.9,M,-26.8,M,,*59
$GPGSA,A,2,17,06,24,,,,,,,,,,3.52,3.37,1.00*07
$GPGSV,1,1,03,06,74,091,38,24,47,279,29,17,35,050,34*4C
$GPRMC,040904.000,A,3325.5660,N,11214.1701,W,0.22,183.14,080317,,,A*75
$GPVTG,183.14,T,,M,0.22,N,0.41,K,A*37
$GPGGA,040905.000,3325.5657,N,11214.1701,W,1,03,3.37,176.9,M,-26.8,M,,*5C
$GPGSA,A,2,17,06,24,,,,,,,,,,3.52,3.37,1.00*07
$GPRMC,040905.000,A,3325.5657,N,11214.1701,W,0.34,173.34,080317,,,A*7A
$GPVTG,173.34,T,,M,0.34,N,0.63,K,A*3D
$GPGGA,040906.000,3325.5659,N,11214.1702,W,1,03,3.37,176.9,M,-26.8,M,,*52
$GPGSA,A,2,17,06,24,,,,,,,,,,3.52,3.37,1.00*07
$GPRMC,040906.000,A,3325.5659,N,11214.1702,W,0.26,187.43,080317,,,A*7C
$GPVTG,187.43,T,,M,0.26,N,0.48,K,A*3C
$GPGGA,040906.206,3325.5659,N,11214.1702,W,1,03,3.37,176.8,M,-26.8,M,,*57
$GPGSA,A,2,17,06,24,,,,,,,,,,3.52,3.37,1.00*07
$GPRMC,040906.206,A,3325.5659,N,11214.1702,W,0.28,189.81,080317,,,A*76
$GPVTG,189.81,T,,M,0.28,N,0.52,K,A*39
$GPGGA,040908.000,3325.5660,N,11214.1701,W,1,03,3.37,176.8,M,-26.8,M,,*54
$GPGSA,A,2,17,06,24,,,,,,,,,,3.52,3.37,1.00*07
$GPRMC,040908.000,A,3325.5660,N,11214.1701,W,0.32,203.79,080317,,,A*78
$GPVTG,203.79,T,,M,0.32,N,0.59,K,A*3F
$GPGGA,040909.000,3325.5660,N,11214.1703,W,1,03,3.38,176.8,M,-26.8,M,,*58
$GPGSA,A,2,17,06,24,,,,,,,,,,3.52,3.38,1.00*08
$GPGSV,1,1,04,06,74,091,36,24,47,279,27,17,35,050,26,19,,,26*44
$GPRMC,040909.000,A,3325.5660,N,11214.1703,W,0.48,231.78,080317,,,A*76
$GPVTG,231.78,T,,M,0.48,N,0.89,K,A*3F
$GPGGA,040910.000,3325.5663,N,11214.1706,W,1,03,3.38,176.8,M,-26.8,M,,*56
$GPGSA,A,2,17,06,24,,,,,,,,,,3.52,3.38,1.00*08
$GPRMC,040910.000,A,3325.5663,N,11214.1706,W,0.55,247.85,080317,,,A*77
$GPVTG,247.85,T,,M,0.55,N,1.02,K,A*32
$GPGGA,040911.000,3325.5663,N,11214.1708,W,1,03,3.38,176.8,M,-26.8,M,,*59
$GPGSA,A,2,17,06,24,,,,,,,,,,3.53,3.38,1.00*09
$GPRMC,040911.000,A,3325.5663,N,11214.1708,W,0.54,246.95,080317,,,A*79
$GPVTG,246.95,T,,M,0.54,N,1.00,K,A*31
$GPGGA,040912.000,3325.5664,N,11214.1709,W,1,03,3.38,176.8,M,-26.8,M,,*5C
$GPGSA,A,2,17,06,24,,,,,,,,,,3.53,3.38,1.00*09
$GPRMC,040912.000,A,3325.5664,N,11214.1709,W,0.48,244.08,080317,,,A*77
$GPVTG,244.08,T,,M,0.48,N,0.89,K,A*3A
$GPGGA,040912.208,3325.5665,N,11214.1709,W,1,03,3.39,176.8,M,-26.8,M,,*56
$GPGSA,A,2,17,06,24,,,,,,,,,,3.53,3.39,1.00*08
$GPRMC,040912.208,A,3325.5665,N,11214.1709,W,0.45,240.92,080317,,,A*76
$GPVTG,240.92,T,,M,0.45,N,0.83,K,A*3A
$GPGGA,040914.000,3325.5664,N,11214.1710,W,1,03,3.38,176.8,M,-26.8,M,,*52
$GPGSA,A,2,17,06,24,,,,,,,,,,3.53,3.38,1.00*09
$GPGSV,1,1,04,06,74,091,32,24,47,279,22,17,35,050,23,19,,,21*47
$GPRMC,040914.000,A,3325.5664,N,11214.1710,W,0.40,237.17,080317,,,A*7B
$GPVTG,237.17,T,,M,0.40,N,0.73,K,A*3D
