$GPGSA,A,1,,,,,,,,,,,,,,,*1E
$GPRMC,235945.799,V,,,,,0.00,0.00,050180,,,N*4A
$GPVTG,0.00,T,,M,0.00,N,0.00,K,N*32
$GPGGA,235946.799,,,,,0,00,,,M,,M,,*70
$GPGSA,A,1,,,,,,,,,,,,,,,*1E
$GPGSV,1,1,01,29,,,29*78
$GPRMC,235946.799,V,,,,,0.00,0.00,050180,,,N*49
$GPVTG,0.00,T,,M,0.00,N,0.00,K,N*32
$GPGGA,235947.799,,,,,0,00,,,M,,M,,*71
$GPGSA,A,1,,,,,,,,,,,,,,,*1E
$GPRMC,235947.799,V,,,,,0.00,0.00,050180,,,N*48
$GPVTG,0.00,T,,M,0.00,N,0.00,K,N*32
$GPGGA,235948.799,,,,,0,00,,,M,,M,,*7E
$GPGSA,A,1,,,,,,,,,,,,,,,*1E
$GPRMC,235948.799,V,,,,,0.00,0.00,050180,,,N*47
$GPVTG,0.00,T,,M,0.00,N,0.00,K,N*32
$GPGGA,235949.799,,,,,0,00,,,M,,M,,*7F
$GPGSA,A,1,,,,,,,,,,,,,,,*1E
$GPRMC,235949.799,V,,,,,0.00,0.00,050180,,,N*46
$GPVTG,0.00,T,,M,0.00,N,0.00,K,N*32
$GPGGA,235950.800,,,,,0,00,,,M,,M,,*78
$GPGSA,A,1,,,,,,,,,,,,,,,*1E
$GPRMC,235950.800,V,,,,,0.00,0.00,050180,,,N*41
$GPVTG,0.00,T,,M,0.00,N,0.00,K,N*32
$GPGGA,235951.800,,,,,0,00,,,M,,M,,*79
$GPGSA,A,1,,,,,,,,,,,,,,,*1E
$GPGSV,1,1,01,29,,,31*71
$GPRMC,235951.800,V,,,,,0.00,0.00,050180,,,N*40
$GPVTG,0.00,T,,M,0.00,N,0.00,K,N*32
$GPGGA,235952.800,,,,,0,00,,,M,,M,,*7A
$GPGSA,A,1,,,,,,,,,,,,,,,*1E
$GPRMC,235952.800,V,,,,,0.00,0.00,050180,,,N*43
$GPVTG,0.00,T,,M,0.00,N,0.00,K,N*32
$GPGGA,235953.800,,,,,0,00,,,M,,M,,*7B
$GPGSA,A,1,,,,,,,,,,,,,,,*1E
$GPRMC,235953.800,V,,,,,0.00,0.00,050180,,,N*42
$GPVTG,0.00,T,,M,0.00,N,0.00,K,N*32
$GPGGA,235954.800,,,,,0,00,,,M,,M,,*7C
$GPGSA,A,1,,,,,,,,,,,,,,,*1E
$GPRMC,235954.800,V,,,,,0.00,0.00,050180,,,N*45
$GPVTG,0.00,T,,M,0.00,N,0.00,K,N*32
$GPGGA,235955.319,,,,,0,00,,,M,,M,,*7E
$GPGSA,A,1,,,,,,,,,,,,,,,*1E
$GPRMC,235955.319,V,,,,,0.00,0.00,050180,,,N*47
$GPVTG,0.00,T,,M,0.00,N,0.00,K,N*32
$GPGGA,235956.319,,,,,0,00,,,M,,M,,*7D
$GPGSA,A,1,,,,,,,,,,,,,,,*1E
$GPGSV,1,1,01,29,,,31*71
$GPRMC,235956.319,V,,,,,0.00,0.00,050180,,,N*44
$GPVTG,0.00,T,,M,0.00,N,0.00,K,N*32
$GPGGA,113938.091,,,,,0,00,,,M,,M,,*71
$GPGSA,A,1,,,,,,,,,,,,,,,*1E
$GPRMC,113938.091,V,,,,,0.00,0.00,100180,,,N*4C
$GPVTG,0.00,T,,M,0.00,N,0.00,K,N*32
$GPGGA,113939.091,,,,,0,00,,,M,,M,,*70
$GPGSA,A,1,,,,,,,,,,,,,,,*1E
$GPRMC,113939.091,V,,,,,0.00,0.00,100180,,,N*4D
$GPVTG,0.00,T,,M,0.00,N,0.00,K,N*32
$GPGGA,113940.091,,,,,0,00,,,M,,M,,*7E
$GPGSA,A,1,,,,,,,,,,,,,,,*1E
$GPRMC,113940.091,V,,,,,0.00,0.00,100180,,,N*43
$GPVTG,0.00,T,,M,0.00,N,0.00,K,N*32
$GPGGA,113941.091,,,,,0,00,,,M,,M,,*7F
$GPGSA,A,1,,,,,,,,,,,,,,,*1E
$GPRMC,113941.091,V,,,,,0.00,0.00,100180,,,N*42
$GPVTG,0.00,T,,M,0.00,N,0.00,K,N*32
$GPGGA,113942.091,,,,,0,00,,,M,,M,,*7C
$GPGSA,A,1,,,,,,,,,,,,,,,*1E
$GPGSV,1,1,02,29,,,31,15,,,33*76
$GPRMC,113942.091,V,,,,,0.00,0.00,100180,,,N*41
$GPVTG,0.00,T,,M,0.00,N,0.00,K,N*32
$GPGGA,113943.091,,,,,0,00,,,M,,M,,*7D
$GPGSA,A,1,,,,,,,,,,,,,,,*1E
$GPRMC,113943.091,V,,,,,0.00,0.00,100180,,,N*40
$GPVTG,0.00,T,,M,0.00,N,0.00,K,N*32
$GPGGA,113944.091,,,,,0,00,,,M,,M,,*7A
$GPGSA,A,1,,,,,,,,,,,,,,,*1E
$GPRMC,113944.091,V,,,,,0.00,0.00,100180,,,N*47
$GPVTG,0.00,T,,M,0.00,N,0.00,K,N*32
$GPGGA,113945.091,,,,,0,00,,,M,,M,,*7B
$GPGSA,A,1,,,,,,,,,,,,,,,*1E
$GPRMC,113945.091,V,,,,,0.00,0.00,100180,,,N*46
$GPVTG,0.00,T,,M,0.00,N,0.00,K,N*32
$GPGGA,113946.091,,,,,0,00,,,M,,M,,*78
$GPGSA,A,1,,,,,,,,,,,,,,,*1E
$GPRMC,113946.091,V,,,,,0.00,0.00,100180,,,N*45
$GPVTG,0.00,T,,M,0.00,N,0.00,K,N*32
$GPGGA,113947.091,,,,,0,00,,,M,,M,,*79
$GPGSA,A,1,,,,,,,,,,,,,,,*1E
$GPGSV,1,1,02,29,,,31,15,,,36*73
$GPRMC,113947.091,V,,,,,0.00,0.00,100180,,,N*44
$GPVTG,0.00,T,,M,0.00,N,0.00,K,N*32
$GPGGA,113948.088,,,,,0,00,,,M,,M,,*7E
$GPGSA,A,1,,,,,,,,,,,,,,,*1E
$GPRMC,113948.088,V,,,,,0.00,0.00,100180,,,N*43
$GPVTG,0.00,T,,M,0.00,N,0.00,K,N*32
$GPGGA,113949.088,,,,,0,00,,,M,,M,,*7F
$GPGSA,A,1,,,,,,,,,,,,,,,*1E
$GPRMC,113949.088,V,,,,,0.00,0.00,100180,,,N*42
$GPVTG,0.00,T,,M,0.00,N,0.00,K,N*32
$GPGGA,113950.088,,,,,0,00,,,M,,M,,*77
$GPGSA,A,1,,,,,,,,,,,,,,,*1E
$GPRMC,113950.088,V,,,,,0.00,0.00,100180,,,N*4A
$GPVTG,0.00,T,,M,0.00,N,0.00,K,N*32
$GPGGA,113951.088,,,,,0,00,,,M,,M,,*76
$GPGSA,A,1,,,,,,,,,,,,,,,*1E
$GPRMC,113951.088,V,,,,,0.00,0.00,100180,,,N*4B
$GPVTG,0.00,T,,M,0.00,N,0.00,K,N*32
$GPGGA,113952.088,,,,,0,00,,,M,,M,,*75
$GPGSA,A,1,,,,,,,,,,,,,,,*1E
$GPGSV,1,1,02,29,,,31,15,,,34*71
$GPRMC,113952.088,V,,,,,0.00,0.00,100180,,,N*48
$GPVTG,0.00,T,,M,0.00,N,0.00,K,N*32
$GPGGA,113953.088,,,,,0,00,,,M,,M,,*74
$GPGSA,A,1,,,,,,,,,,,,,,,*1E
$GPRMC,113953.088,V,,,,,0.00,0.00,100180,,,N*49
$GPVTG,0.00,T,,M,0.00,N,0.00,K,N*32
$GPGGA,113954.083,,,,,0,00,,,M,,M,,*78
$GPGSA,A,1,,,,,,,,,,,,,,,*1E
$GPRMC,113954.083,V,,,,,0.00,0.00,100180,,,N*45
$GPVTG,0.00,T,,M,0.00,N,0.00,K,N*32
$GPGGA,113954.304,,,,,0,00,,,M,,M,,*74
$GPGSA,A,1,,,,,,,,,,,,,,,*1E
$GPRMC,113954.304,V,,,,,0.00,0.00,100180,,,N*49
$GPVTG,0.00,T,,M,0.00,N,0.00,K,N*32
$GPGGA,113955.304,,,,,0,00,,,M,,M,,*75
$GPGSA,A,1,,,,,,,,,,,,,,,*1E
$GPRMC,113955.304,V,,,,,0.00,0.00,100180,,,N*48
$GPVTG,0.00,T,,M,0.00,N,0.00,K,N*32
$GPGGA,113956.304,,,,,0,00,,,M,,M,,*76
$GPGSA,A,1,,,,,,,,,,,,,,,*1E
$GPGSV,1,1,02,29,,,31,15,,,35*70
$GPRMC,113956.304,V,,,,,0.00,0.00,100180,,,N*4B
$GPVTG,0.00,T,,M,0.00,N,0.00,K,N*32
$GPGGA,113957.304,,,,,0,00,,,M,,M,,*77
$GPGSA,A,1,,,,,,,,,,,,,,,*1E
$GPRMC,113957.304,V,,,,,0.00,0.00,100180,,,N*4A
$GPVTG,0.00,T,,M,0.00,N,0.00,K,N*32
$GPGGA,113958.304,,,,,0,00,,,M,,M,,*78
$GPGSA,A,1,,,,,,,,,,,,,,,*1E
$GPRMC,113958.304,V,,,,,0.00,0.00,100180,,,N*45
$GPVTG,0.00,T,,M,0.00,N,0.00,K,N*32
$GPGGA,113959.304,,,,,0,00,,,M,,M,,*79
$GPGSA,A,1,,,,,,,,,,,,,,,*1E
$GPRMC,113959.304,V,,,,,0.00,0.00,100180,,,N*44
$GPVTG,0.00,T,,M,0.00,N,0.00,K,N*32
$GPGGA,114000.083,,,,,0,00,,,M,,M,,*77
$GPGSA,A,1,,,,,,,,,,,,,,,*1E
$GPRMC,114000.083,V,,,,,0.00,0.00,100180,,,N*4A
$GPVTG,0.00,T,,M,0.00,N,0.00,K,N*32
$GPGGA,114000.304,,,,,0,00,,,M,,M,,*7B
$GPGSA,A,1,,,,,,,,,,,,,,,*1E
$GPGSV,1,1,02,29,,,30,15,,,35*71
$GPRMC,114000.304,V,,,,,0.00,0.00,090317,,,N*42
$GPVTG,0.00,T,,M,0.00,N,0.00,K,N*32
$GPGGA,114001.304,,,,,0,00,,,M,,M,,*7A
$GPGSA,A,1,,,,,,,,,,,,,,,*1E
$GPRMC,114001.304,V,,,,,0.00,0.00,090317,,,N*43
$GPVTG,0.00,T,,M,0.00,N,0.00,K,N*32
$GPGGA,114002.304,,,,,0,00,,,M,,M,,*79
$GPGSA,A,1,,,,,,,,,,,,,,,*1E
$GPRMC,114002.304,V,,,,,0.00,0.00,090317,,,N*40
$GPVTG,0.00,T,,M,0.00,N,0.00,K,N*32
$GPGGA,114003.304,,,,,0,00,,,M,,M,,*78
$GPGSA,A,1,,,,,,,,,,,,,,,*1E
$GPRMC,114003.304,V,,,,,0.00,0.00,090317,,,N*41
$GPVTG,0.00,T,,M,0.00,N,0.00,K,N*32
$GPGGA,114004.304,,,,,0,00,,,M,,M,,*7F
$GPGSA,A,1,,,,,,,,,,,,,,,*1E
$GPRMC,114004.304,V,,,,,0.00,0.00,090317,,,N*46
$GPVTG,0.00,T,,M,0.00,N,0.00,K,N*32
$GPGGA,114005.304,,,,,0,00,,,M,,M,,*7E
$GPGSA,A,1,,,,,,,,,,,,,,,*1E
$GPGSV,1,1,02,29,,,30,15,,,36*72
$GPRMC,114005.304,V,,,,,0.00,0.00,090317,,,N*47
$GPVTG,0.00,T,,M,0.00,N,0.00,K,N*32
$GPGGA,114006.083,,,,,0,00,,,M,,M,,*71
$GPGSA,A,1,,,,,,,,,,,,,,,*1E
$GPRMC,114006.083,V,,,,,0.00,0.00,090317,,,N*48
$GPVTG,0.00,T,,M,0.00,N,0.00,K,N*32
$GPGGA,114006.304,,,,,0,00,,,M,,M,,*7D
$GPGSA,A,1,,,,,,,,,,,,,,,*1E
$GPRMC,114006.304,V,,,,,0.00,0.00,090317,,,N*44
$GPVTG,0.00,T,,M,0.00,N,0.00,K,N*32
$GPGGA,114007.304,,,,,0,00,,,M,,M,,*7C
$GPGSA,A,1,,,,,,,,,,,,,,,*1E
$GPRMC,114007.304,V,,,,,0.00,0.00,090317,,,N*45
$GPVTG,0.00,T,,M,0.00,N,0.00,K,N*32
$GPGGA,114008.304,,,,,0,00,,,M,,M,,*73
$GPGSA,A,1,,,,,,,,,,,,,,,*1E
$GPRMC,114008.304,V,,,,,0.00,0.00,090317,,,N*4A
$GPVTG,0.00,T,,M,0.00,N,0.00,K,N*32
$GPGGA,114009.304,,,,,0,00,,,M,,M,,*72
$GPGSA,A,1,,,,,,,,,,,,,,,*1E
$GPGSV,1,1,02,29,,,29,15,,,37*7B
$GPRMC,114009.304,V,,,,,0.00,0.00,090317,,,N*4B
$GPVTG,0.00,T,,M,0.00,N,0.00,K,N*32
$GPGGA,114010.304,,,,,0,00,,,M,,M,,*7A
$GPGSA,A,1,,,,,,,,,,,,,,,*1E
$GPRMC,114010.304,V,,,,,0.00,0.00,090317,,,N*43
$GPVTG,0.00,T,,M,0.00,N,0.00,K,N*32
$GPGGA,114011.304,,,,,0,00,,,M,,M,,*7B
$GPGSA,A,1,,,,,,,,,,,,,,,*1E
$GPRMC,114011.304,V,,,,,0.00,0.00,090317,,,N*42
$GPVTG,0.00,T,,M,0.00,N,0.00,K,N*32
$GPGGA,114012.085,,,,,0,00,,,M,,M,,*72
$GPGSA,A,1,,,,,,,,,,,,,,,*1E
$GPRMC,114012.085,V,,,,,0.00,0.00,090317,,,N*4B
$GPVTG,0.00,T,,M,0.00,N,0.00,K,N*32
$GPGGA,114013.085,,,,,0,00,,,M,,M,,*73
$GPGSA,A,1,,,,,,,,,,,,,,,*1E
$GPRMC,114013.085,V,,,,,0.00,0.00,090317,,,N*4A
$GPVTG,0.00,T,,M,0.00,N,0.00,K,N*32
$GPGGA,114014.085,,,,,0,00,,,M,,M,,*74
$GPGSA,A,1,,,,,,,,,,,,,,,*1E
$GPGSV,1,1,02,15,,,35,29,,,29*79
$GPRMC,114014.085,V,,,,,0.00,0.00,090317,,,N*4D
$GPVTG,0.00,T,,M,0.00,N,0.00,K,N*32
$GPGGA,114015.085,,,,,0,00,,,M,,M,,*75
$GPGSA,A,1,,,,,,,,,,,,,,,*1E
$GPRMC,114015.085,V,,,,,0.00,0.00,090317,,,N*4C
$GPVTG,0.00,T,,M,0.00,N,0.00,K,N*32
$GPGGA,114016.085,,,,,0,00,,,M,,M,,*76
$GPGSA,A,1,,,,,,,,,,,,,,,*1E
$GPRMC,114016.085,V,,,,,0.00,0.00,090317,,,N*4F
$GPVTG,0.00,T,,M,0.00,N,0.00,K,N*32
$GPGGA,114017.085,,,,,0,00,,,M,,M,,*77
$GPGSA,A,1,,,,,,,,,,,,,,,*1E
$GPRMC,114017.085,V,,,,,0.00,0.00,090317,,,N*4E
$GPVTG,0.00,T,,M,0.00,N,0.00,K,N*32
$GPGGA,114018.085,,,,,0,00,,,M,,M,,*78
$GPGSA,A,1,,,,,,,,,,,,,,,*1E
$GPRMC,114018.085,V,,,,,0.00,0.00,090317,,,N*41
$GPVTG,0.00,T,,M,0.00,N,0.00,K,N*32
$GPGGA,114018.304,,,,,0,00,,,M,,M,,*72
$GPGSA,A,1,,,,,,,,,,,,,,,*1E
$GPGSV,1,1,02,15,,,36,29,,,30*72
$GPRMC,114018.304,V,,,,,0.00,0.00,090317,,,N*4B
$GPVTG,0.00,T,,M,0.00,N,0.00,K,N*32
$GPGGA,114019.304,,,,,0,00,,,M,,M,,*73
$GPGSA,A,1,,,,,,,,,,,,,,,*1E
$GPRMC,114019.304,V,,,,,0.00,0.00,090317,,,N*4A
$GPVTG,0.00,T,,M,0.00,N,0.00,K,N*32
$GPGGA,114020.304,,,,,0,00,,,M,,M,,*79
$GPGSA,A,1,,,,,,,,,,,,,,,*1E
$GPRMC,114020.304,V,,,,,0.00,0.00,090317,,,N*40
$GPVTG,0.00,T,,M,0.00,N,0.00,K,N*32
$GPGGA,114021.304,,,,,0,00,,,M,,M,,*78
$GPGSA,A,1,,,,,,,,,,,,,,,*1E
$GPRMC,114021.304,V,,,,,0.00,0.00,090317,,,N*41
$GPVTG,0.00,T,,M,0.00,N,0.00,K,N*32
$GPGGA,114022.304,,,,,0,00,,,M,,M,,*7B
$GPGSA,A,1,,,,,,,,,,,,,,,*1E
$GPRMC,114022.304,V,,,,,0.00,0.00,090317,,,N*42
$GPVTG,0.00,T,,M,0.00,N,0.00,K,N*32
$GPGGA,114023.304,,,,,0,00,,,M,,M,,*7A
$GPGSA,A,1,,,,,,,,,,,,,,,*1E
$GPGSV,1,1,02,15,,,36,29,,,29*7A
$GPRMC,114023.304,V,,,,,0.00,0.00,090317,,,N*43
$GPVTG,0.00,T,,M,0.00,N,0.00,K,N*32
$GPGGA,114024.085,,,,,0,00,,,M,,M,,*77
$GPGSA,A,1,,,,,,,,,,,,,,,*1E
$GPRMC,114024.085,V,,,,,0.00,0.00,090317,,,N*4E
$GPVTG,0.00,T,,M,0.00,N,0.00,K,N*32
$GPGGA,114025.085,,,,,0,00,,,M,,M,,*76
$GPGSA,A,1,,,,,,,,,,,,,,,*1E
$GPRMC,114025.085,V,,,,,0.00,0.00,090317,,,N*4F
$GPVTG,0.00,T,,M,0.00,N,0.00,K,N*32
$GPGGA,114026.085,,,,,0,00,,,M,,M,,*75
$GPGSA,A,1,,,,,,,,,,,,,,,*1E
$GPRMC,114026.085,V,,,,,0.00,0.00,090317,,,N*4C
$GPVTG,0.00,T,,M,0.00,N,0.00,K,N*32
$GPGGA,114027.085,,,,,0,00,,,M,,M,,*74
$GPGSA,A,1,,,,,,,,,,,,,,,*1E
$GPRMC,114027.085,V,,,,,0.00,0.00,090317,,,N*4D
$GPVTG,0.00,T,,M,0.00,N,0.00,K,N*32
$GPGGA,114028.085,,,,,0,00,,,M,,M,,*7B
$GPGSA,A,1,,,,,,,,,,,,,,,*1E
$GPGSV,1,1,02,15,,,26,29,,,29*7B
$GPRMC,114028.085,V,,,,,0.00,0.00,090317,,,N*42
$GPVTG,0.00,T,,M,0.00,N,0.00,K,N*32
$GPGGA,114029.085,,,,,0,00,,,M,,M,,*7A
$GPGSA,A,1,,,,,,,,,,,,,,,*1E
$GPRMC,114029.085,V,,,,,0.00,0.00,090317,,,N*43
$GPVTG,0.00,T,,M,0.00,N,0.00,K,N*32
$GPGGA,114030.085,,,,,0,00,,,M,,M,,*72
$GPGSA,A,1,,,,,,,,,,,,,,,*1E
$GPRMC,114030.085,V,,,,,0.00,0.00,090317,,,N*4B
$GPVTG,0.00,T,,M,0.00,N,0.00,K,N*32
$GPGGA,114030.291,,,,,0,00,,,M,,M,,*75
$GPGSA,A,1,,,,,,,,,,,,,,,*1E
$GPRMC,114030.291,V,,,,,0.00,0.00,090317,,,N*4C
$GPVTG,0.00,T,,M,0.00,N,0.00,K,N*32
$GPGGA,114031.291,,,,,0,00,,,M,,M,,*74
$GPGSA,A,1,,,,,,,,,,,,,,,*1E
$GPRMC,114031.291,V,,,,,0.00,0.00,090317,,,N*4D
$GPVTG,0.00,T,,M,0.00,N,0.00,K,N*32
$GPGGA,114032.291,,,,,0,00,,,M,,M,,*77
$GPGSA,A,1,,,,,,,,,,,,,,,*1E
$GPGSV,1,1,02,15,,,30,29,,,28*7D
$GPRMC,114032.291,V,,,,,0.00,0.00,090317,,,N*4E
$GPVTG,0.00,T,,M,0.00,N,0.00,K,N*32
$GPGGA,114033.291,,,,,0,00,,,M,,M,,*76
$GPGSA,A,1,,,,,,,,,,,,,,,*1E
$GPRMC,114033.291,V,,,,,0.00,0.00,090317,,,N*4F
$GPVTG,0.00,T,,M,0.00,N,0.00,K,N*32
$GPGGA,114034.291,,,,,0,00,,,M,,M,,*71
$GPGSA,A,1,,,,,,,,,,,,,,,*1E
$GPRMC,114034.291,V,,,,,0.00,0.00,090317,,,N*48
$GPVTG,0.00,T,,M,0.00,N,0.00,K,N*32
$GPGGA,114035.291,,,,,0,00,,,M,,M,,*70
$GPGSA,A,1,,,,,,,,,,,,,,,*1E
$GPRMC,114035.291,V,,,,,0.00,0.00,090317,,,N*49
$GPVTG,0.00,T,,M,0.00,N,0.00,K,N*32
$GPGGA,114036.086,,,,,0,00,,,M,,M,,*77
$GPGSA,A,1,,,,,,,,,,,,,,,*1E
$GPRMC,114036.086,V,,,,,0.00,0.00,090317,,,N*4E
$GPVTG,0.00,T,,M,0.00,N,0.00,K,N*32
$GPGGA,114037.086,,,,,0,00,,,M,,M,,*76
$GPGSA,A,1,,,,,,,,,,,,,,,*1E
$GPGSV,1,1,02,15,,,32,29,,,28*7F
$GPRMC,114037.086,V,,,,,0.00,0.00,090317,,,N*4F
$GPVTG,0.00,T,,M,0.00,N,0.00,K,N*32
$GPGGA,114038.086,,,,,0,00,,,M,,M,,*79
$GPGSA,A,1,,,,,,,,,,,,,,,*1E
$GPRMC,114038.086,V,,,,,0.00,0.00,090317,,,N*40
$GPVTG,0.00,T,,M,0.00,N,0.00,K,N*32
$GPGGA,114039.086,,,,,0,00,,,M,,M,,*78
$GPGSA,A,1,,,,,,,,,,,,,,,*1E
$GPRMC,114039.086,V,,,,,0.00,0.00,090317,,,N*41
$GPVTG,0.00,T,,M,0.00,N,0.00,K,N*32
$GPGGA,114040.086,,,,,0,00,,,M,,M,,*76
$GPGSA,A,1,,,,,,,,,,,,,,,*1E
$GPRMC,114040.086,V,,,,,0.00,0.00,090317,,,N*4F
$GPVTG,0.00,T,,M,0.00,N,0.00,K,N*32
$GPGGA,114041.086,,,,,0,00,,,M,,M,,*77
$GPGSA,A,1,,,,,,,,,,,,,,,*1E
$GPRMC,114041.086,V,,,,,0.00,0.00,090317,,,N*4E
$GPVTG,0.00,T,,M,0.00,N,0.00,K,N*32
$GPGGA,114042.086,,,,,0,00,,,M,,M,,*74
$GPGSA,A,1,,,,,,,,,,,,,,,*1E
$GPGSV,1,1,02,15,,,33,29,,,28*7E
$GPRMC,114042.086,V,,,,,0.00,0.00,090317,,,N*4D
$GPVTG,0.00,T,,M,0.00,N,0.00,K,N*32
$GPGGA,114043.086,,,,,0,00,,,M,,M,,*75
$GPGSA,A,1,,,,,,,,,,,,,,,*1E
$GPRMC,114043.086,V,,,,,0.00,0.00,090317,,,N*4C
$GPVTG,0.00,T,,M,0.00,N,0.00,K,N*32
$GPGGA,114044.086,,,,,0,00,,,M,,M,,*72
$GPGSA,A,1,,,,,,,,,,,,,,,*1E
$GPRMC,114044.086,V,,,,,0.00,0.00,090317,,,N*4B
$GPVTG,0.00,T,,M,0.00,N,0.00,K,N*32
$GPGGA,114045.086,,,,,0,00,,,M,,M,,*73
$GPGSA,A,1,,,,,,,,,,,,,,,*1E
$GPRMC,114045.086,V,,,,,0.00,0.00,090317,,,N*4A
$GPVTG,0.00,T,,M,0.00,N,0.00,K,N*32
$GPGGA,114046.086,,,,,0,00,,,M,,M,,*70
$GPGSA,A,1,,,,,,,,,,,,,,,*1E
$GPRMC,114046.086,V,,,,,0.00,0.00,090317,,,N*49
$GPVTG,0.00,T,,M,0.00,N,0.00,K,N*32
$GPGGA,114047.086,,,,,0,00,,,M,,M,,*71
$GPGSA,A,1,,,,,,,,,,,,,,,*1E
$GPGSV,1,1,02,15,,,33,29,,,27*71
$GPRMC,114047.086,V,,,,,0.00,0.00,090317,,,N*48
$GPVTG,0.00,T,,M,0.00,N,0.00,K,N*32
$GPGGA,114048.086,,,,,0,00,,,M,,M,,*7E
$GPGSA,A,1,,,,,,,,,,,,,,,*1E
$GPRMC,114048.086,V,,,,,0.00,0.00,090317,,,N*47
$GPVTG,0.00,T,,M,0.00,N,0.00,K,N*32
$GPGGA,114049.086,,,,,0,00,,,M,,M,,*7F
$GPGSA,A,1,,,,,,,,,,,,,,,*1E
$GPRMC,114049.086,V,,,,,0.00,0.00,090317,,,N*46
$GPVTG,0.00,T,,M,0.00,N,0.00,K,N*32
$GPGGA,114050.086,,,,,0,00,,,M,,M,,*77
$GPGSA,A,1,,,,,,,,,,,,,,,*1E
$GPRMC,114050.086,V,,,,,0.00,0.00,090317,,,N*4E
$GPVTG,0.00,T,,M,0.00,N,0.00,K,N*32
$GPGGA,114051.086,,,,,0,00,,,M,,M,,*76
$GPGSA,A,1,,,,,,,,,,,,,,,*1E
$GPRMC,114051.086,V,,,,,0.00,0.00,090317,,,N*4F
$GPVTG,0.00,T,,M,0.00,N,0.00,K,N*32
$GPGGA,114052.086,,,,,0,00,,,M,,M,,*75
$GPGSA,A,1,,,,,,,,,,,,,,,*1E
$GPGSV,1,1,02,15,,,32,29,,,26*71
$GPRMC,114052.086,V,,,,,0.00,0.00,090317,,,N*4C
$GPVTG,0.00,T,,M,0.00,N,0.00,K,N*32
$GPGGA,114053.086,,,,,0,00,,,M,,M,,*74
$GPGSA,A,1,,,,,,,,,,,,,,,*1E
$GPRMC,114053.086,V,,,,,0.00,0.00,090317,,,N*4D
$GPVTG,0.00,T,,M,0.00,N,0.00,K,N*32
$GPGGA,114054.086,,,,,0,00,,,M,,M,,*73
$GPGSA,A,1,,,,,,,,,,,,,,,*1E
$GPRMC,114054.086,V,,,,,0.00,0.00,090317,,,N*4A
$GPVTG,0.00,T,,M,0.00,N,0.00,K,N*32
$GPGGA,114055.086,,,,,0,00,,,M,,M,,*72
$GPGSA,A,1,,,,,,,,,,,,,,,*1E
$GPRMC,114055.086,V,,,,,0.00,0.00,090317,,,N*4B
$GPVTG,0.00,T,,M,0.00,N,0.00,K,N*32
$GPGGA,114056.086,,,,,0,00,,,M,,M,,*71
$GPGSA,A,1,,,,,,,,,,,,,,,*1E
$GPRMC,114056.086,V,,,,,0.00,0.00,090317,,,N*48
$GPVTG,0.00,T,,M,0.00,N,0.00,K,N*32
$GPGGA,114057.086,,,,,0,00,,,M,,M,,*70
$GPGSA,A,1,,,,,,,,,,,,,,,*1E
$GPGSV,1,1,02,15,,,33,29,,,25*73
$GPRMC,114057.086,V,,,,,0.00,0.00,090317,,,N*49
$GPVTG,0.00,T,,M,0.00,N,0.00,K,N*32
$GPGGA,114058.086,,,,,0,00,,,M,,M,,*7F
$GPGSA,A,1,,,,,,,,,,,,,,,*1E
$GPRMC,114058.086,V,,,,,0.00,0.00,090317,,,N*46
$GPVTG,0.00,T,,M,0.00,N,0.00,K,N*32
$GPGGA,114059.086,,,,,0,00,,,M,,M,,*7E
$GPGSA,A,1,,,,,,,,,,,,,,,*1E
$GPRMC,114059.086,V,,,,,0.00,0.00,090317,,,N*47
$GPVTG,0.00,T,,M,0.00,N,0.00,K,N*32
$GPGGA,114100.086,,,,,0,00,,,M,,M,,*73
$GPGSA,A,1,,,,,,,,,,,,,,,*1E
$GPRMC,114100.086,V,,,,,0.00,0.00,090317,,,N*4A
$GPVTG,0.00,T,,M,0.00,N,0.00,K,N*32
$GPGGA,114101.086,,,,,0,00,,,M,,M,,*72
$GPGSA,A,1,,,,,,,,,,,,,,,*1E
$GPRMC,114101.086,V,,,,,0.00,0.00,090317,,,N*4B
$GPVTG,0.00,T,,M,0.00,N,0.00,K,N*32
$GPGGA,114102.086,,,,,0,00,,,M,,M,,*71
$GPGSA,A,1,,,,,,,,,,,,,,,*1E
$GPGSV,1,1,02,15,,,35,29,,,23*73
$GPRMC,114102.086,V,,,,,0.00,0.00,090317,,,N*48
$GPVTG,0.00,T,,M,0.00,N,0.00,K,N*32
$GPGGA,114103.086,,,,,0,00,,,M,,M,,*70
$GPGSA,A,1,,,,,,,,,,,,,,,*1E
$GPRMC,114103.086,V,,,,,0.00,0.00,090317,,,N*49
$GPVTG,0.00,T,,M,0.00,N,0.00,K,N*32
$GPGGA,114104.086,,,,,0,00,,,M,,M,,*77
$GPGSA,A,1,,,,,,,,,,,,,,,*1E
$GPRMC,114104.086,V,,,,,0.00,0.00,090317,,,N*4E
$GPVTG,0.00,T,,M,0.00,N,0.00,K,N*32
$GPGGA,114105.086,,,,,0,00,,,M,,M,,*76
$GPGSA,A,1,,,,,,,,,,,,,,,*1E
$GPRMC,114105.086,V,,,,,0.00,0.00,090317,,,N*4F
$GPVTG,0.00,T,,M,0.00,N,0.00,K,N*32
$GPGGA,114106.086,,,,,0,00,,,M,,M,,*75
$GPGSA,A,1,,,,,,,,,,,,,,,*1E
$GPRMC,114106.086,V,,,,,0.00,0.00,090317,,,N*4C
$GPVTG,0.00,T,,M,0.00,N,0.00,K,N*32
$GPGGA,114107.086,,,,,0,00,,,M,,M,,*74
$GPGSA,A,1,,,,,,,,,,,,,,,*1E
$GPGSV,1,1,02,15,,,35,29,,,21*71
$GPRMC,114107.086,V,,,,,0.00,0.00,090317,,,N*4D
$GPVTG,0.00,T,,M,0.00,N,0.00,K,N*32
$GPGGA,114108.086,,,,,0,00,,,M,,M,,*7B
$GPGSA,A,1,,,,,,,,,,,,,,,*1E
$GPRMC,114108.086,V,,,,,0.00,0.00,090317,,,N*42
$GPVTG,0.00,T,,M,0.00,N,0.00,K,N*32
$GPGGA,114109.086,,,,,0,00,,,M,,M,,*7A
$GPGSA,A,1,,,,,,,,,,,,,,,*1E
$GPRMC,114109.086,V,,,,,0.00,0.00,090317,,,N*43
$GPVTG,0.00,T,,M,0.00,N,0.00,K,N*32
$GPGGA,114110.086,,,,,0,00,,,M,,M,,*72
$GPGSA,A,1,,,,,,,,,,,,,,,*1E
$GPRMC,114110.086,V,,,,,0.00,0.00,090317,,,N*4B
$GPVTG,0.00,T,,M,0.00,N,0.00,K,N*32
$GPGGA,114111.086,,,,,0,00,,,M,,M,,*73
$GPGSA,A,1,,,,,,,,,,,,,,,*1E
$GPRMC,114111.086,V,,,,,0.00,0.00,090317,,,N*4A
$GPVTG,0.00,T,,M,0.00,N,0.00,K,N*32
$GPGGA,114112.086,,,,,0,00,,,M,,M,,*70
$GPGSA,A,1,,,,,,,,,,,,,,,*1E
$GPGSV,1,1,03,15,,,35,29,,,20,27,,,30*77
$GPRMC,114112.086,V,,,,,0.00,0.00,090317,,,N*49
$GPVTG,0.00,T,,M,0.00,N,0.00,K,N*32
$GPGGA,114113.086,,,,,0,00,,,M,,M,,*71
$GPGSA,A,1,,,,,,,,,,,,,,,*1E
$GPRMC,114113.086,V,,,,,0.00,0.00,090317,,,N*48
$GPVTG,0.00,T,,M,0.00,N,0.00,K,N*32
$GPGGA,114114.086,,,,,0,00,,,M,,M,,*76
$GPGSA,A,1,,,,,,,,,,,,,,,*1E
$GPRMC,114114.086,V,,,,,0.00,0.00,090317,,,N*4F
$GPVTG,0.00,T,,M,0.00,N,0.00,K,N*32
$GPGGA,114115.086,,,,,0,00,,,M,,M,,*77
$GPGSA,A,1,,,,,,,,,,,,,,,*1E
$GPRMC,114115.086,V,,,,,0.00,0.00,090317,,,N*4E
$GPVTG,0.00,T,,M,0.00,N,0.00,K,N*32
$GPGGA,114116.086,,,,,0,00,,,M,,M,,*74
$GPGSA,A,1,,,,,,,,,,,,,,,*1E
$GPRMC,114116.086,V,,,,,0.00,0.00,090317,,,N*4D
$GPVTG,0.00,T,,M,0.00,N,0.00,K,N*32
$GPGGA,114117.086,,,,,0,00,,,M,,M,,*75
$GPGSA,A,1,,,,,,,,,,,,,,,*1E
$GPGSV,1,1,03,15,,,34,29,,,18,27,,,29*75
$GPRMC,114117.086,V,,,,,0.00,0.00,090317,,,N*4C
$GPVTG,0.00,T,,M,0.00,N,0.00,K,N*32
$GPGGA,114118.082,,,,,0,00,,,M,,M,,*7E
$GPGSA,A,1,,,,,,,,,,,,,,,*1E
$GPRMC,114118.082,V,,,,,0.00,0.00,090317,,,N*47
$GPVTG,0.00,T,,M,0.00,N,0.00,K,N*32
$GPGGA,114118.303,,,,,0,00,,,M,,M,,*74
$GPGSA,A,1,,,,,,,,,,,,,,,*1E
$GPRMC,114118.303,V,,,,,0.00,0.00,090317,,,N*4D
$GPVTG,0.00,T,,M,0.00,N,0.00,K,N*32
$GPGGA,114119.303,,,,,0,00,,,M,,M,,*75
$GPGSA,A,1,,,,,,,,,,,,,,,*1E
$GPRMC,114119.303,V,,,,,0.00,0.00,090317,,,N*4C
$GPVTG,0.00,T,,M,0.00,N,0.00,K,N*32
$GPGGA,114120.303,,,,,0,00,,,M,,M,,*7F
$GPGSA,A,1,,,,,,,,,,,,,,,*1E
$GPRMC,114120.303,V,,,,,0.00,0.00,090317,,,N*46
$GPVTG,0.00,T,,M,0.00,N,0.00,K,N*32
$GPGGA,114121.303,,,,,0,00,,,M,,M,,*7E
$GPGSA,A,1,,,,,,,,,,,,,,,*1E
$GPGSV,1,1,03,15,,,35,29,,,18,27,,,27*7A
$GPRMC,114121.303,V,,,,,0.00,0.00,090317,,,N*47
$GPVTG,0.00,T,,M,0.00,N,0.00,K,N*32
$GPGGA,114122.303,,,,,0,00,,,M,,M,,*7D
$GPGSA,A,1,,,,,,,,,,,,,,,*1E
$GPRMC,114122.303,V,,,,,0.00,0.00,090317,,,N*44
$GPVTG,0.00,T,,M,0.00,N,0.00,K,N*32
$GPGGA,114123.303,,,,,0,00,,,M,,M,,*7C
$GPGSA,A,1,,,,,,,,,,,,,,,*1E
$GPRMC,114123.303,V,,,,,0.00,0.00,090317,,,N*45
$GPVTG,0.00,T,,M,0.00,N,0.00,K,N*32
$GPGGA,114124.087,,,,,0,00,,,M,,M,,*74
$GPGSA,A,1,,,,,,,,,,,,,,,*1E
$GPRMC,114124.087,V,,,,,0.00,0.00,090317,,,N*4D
$GPVTG,0.00,T,,M,0.00,N,0.00,K,N*32
$GPGGA,114125.087,,,,,0,00,,,M,,M,,*75
$GPGSA,A,1,,,,,,,,,,,,,,,*1E
$GPRMC,114125.087,V,,,,,0.00,0.00,090317,,,N*4C
$GPVTG,0.00,T,,M,0.00,N,0.00,K,N*32
$GPGGA,114126.087,,,,,0,00,,,M,,M,,*76
$GPGSA,A,1,,,,,,,,,,,,,,,*1E
$GPGSV,1,1,04,15,,,36,29,,,18,27,,,29,20,,,27*77
$GPRMC,114126.087,V,,,,,0.00,0.00,090317,,,N*4F
$GPVTG,0.00,T,,M,0.00,N,0.00,K,N*32
$GPGGA,114127.087,,,,,0,00,,,M,,M,,*77
$GPGSA,A,1,,,,,,,,,,,,,,,*1E
$GPRMC,114127.087,V,,,,,0.00,0.00,090317,,,N*4E
$GPVTG,0.00,T,,M,0.00,N,0.00,K,N*32
$GPGGA,114128.087,,,,,0,00,,,M,,M,,*78
$GPGSA,A,1,,,,,,,,,,,,,,,*1E
$GPRMC,114128.087,V,,,,,0.00,0.00,090317,,,N*41
$GPVTG,0.00,T,,M,0.00,N,0.00,K,N*32
$GPGGA,114129.087,,,,,0,00,,,M,,M,,*79
$GPGSA,A,1,,,,,,,,,,,,,,,*1E
$GPRMC,114129.087,V,,,,,0.00,0.00,090317,,,N*40
$GPVTG,0.00,T,,M,0.00,N,0.00,K,N*32
$GPGGA,114130.087,,,,,0,00,,,M,,M,,*71
$GPGSA,A,1,,,,,,,,,,,,,,,*1E
$GPRMC,114130.087,V,,,,,0.00,0.00,090317,,,N*48
$GPVTG,0.00,T,,M,0.00,N,0.00,K,N*32
$GPGGA,114131.092,,,,,0,03,,,M,,M,,*77
$GPGSA,A,1,,,,,,,,,,,,,,,*1E
$GPGSV,1,1,04,15,,,37,29,,,18,27,,,29,20,,,28*79
$GPRMC,114131.092,V,,,,,0.08,276.59,090317,,,N*4A
$GPVTG,276.59,T,,M,0.08,N,0.16,K,N*32
$GPGGA,114132.092,,,,,0,03,,,M,,M,,*74
$GPGSA,A,1,,,,,,,,,,,,,,,*1E
$GPRMC,114132.092,V,,,,,0.30,68.85,090317,,,N*7E
$GPVTG,68.85,T,,M,0.30,N,0.56,K,N*01
$GPGGA,114134.000,,,,,0,03,,,M,,M,,*79
$GPGSA,A,1,,,,,,,,,,,,,,,*1E
$GPRMC,114134.000,V,,,,,0.29,356.19,090317,,,N*40
$GPVTG,356.19,T,,M,0.29,N,0.54,K,N*30
$GPGGA,114135.000,3325.6421,N,11214.1791,W,1,03,1.41,176.8,M,-26.8,M,,*5C
$GPGSA,A,2,29,15,27,,,,,,,,,,1.73,1.41,1.00*09
$GPRMC,114135.000,A,3325.6421,N,11214.1791,W,0.26,253.51,090317,,,A*78
$GPVTG,253.51,T,,M,0.26,N,0.48,K,A*35
$GPGGA,114136.000,3325.6416,N,11214.1788,W,1,03,1.41,176.8,M,-26.8,M,,*53
$GPGSA,A,2,29,15,27,,,,,,,,,,1.73,1.41,1.00*09
$GPRMC,114136.000,A,3325.6416,N,11214.1788,W,0.11,121.01,090317,,,A*70
$GPVTG,121.01,T,,M,0.11,N,0.21,K,A*3D
$GPGGA,114136.208,3325.6413,N,11214.1788,W,1,03,1.41,176.8,M,-26.8,M,,*5C
$GPGSA,A,2,29,15,27,,,,,,,,,,1.73,1.41,1.00*09
$GPGSV,2,1,05,21,73,058,,27,33,309,29,15,33,049,37,29,17,164,15*76
$GPGSV,2,2,05,20,,,28*74
$GPRMC,114136.208,A,3325.6413,N,11214.1788,W,0.09,135.43,090317,,,A*75
$GPVTG,135.43,T,,M,0.09,N,0.17,K,A*32
$GPGGA,114138.000,3325.6403,N,11214.1787,W,1,03,1.41,176.8,M,-26.8,M,,*56
$GPGSA,A,2,29,15,27,,,,,,,,,,1.73,1.41,1.00*09
$GPRMC,114138.000,A,3325.6403,N,11214.1787,W,0.14,158.51,090317,,,A*7B
$GPVTG,158.51,T,,M,0.14,N,0.26,K,A*34
$GPGGA,114139.000,3325.6382,N,11214.1787,W,1,03,1.41,176.8,M,-26.8,M,,*59
$GPGSA,A,2,29,15,27,,,,,,,,,,1.73,1.41,1.00*09
$GPRMC,114139.000,A,3325.6382,N,11214.1787,W,0.70,197.31,090317,,,A*73
$GPVTG,197.31,T,,M,0.70,N,1.30,K,A*35
$GPGGA,114140.000,3325.6378,N,11214.1786,W,1,03,1.41,176.8,M,-26.8,M,,*53
$GPGSA,A,2,29,15,27,,,,,,,,,,1.72,1.41,1.00*08
$GPRMC,114140.000,A,3325.6378,N,11214.1786,W,0.32,167.47,090317,,,A*71
$GPVTG,167.47,T,,M,0.32,N,0.59,K,A*33
$GPGGA,114141.000,3325.6376,N,11214.1787,W,1,03,1.41,176.8,M,-26.8,M,,*5D
$GPGSA,A,2,29,15,27,,,,,,,,,,1.73,1.41,1.00*09
$GPRMC,114141.000,A,3325.6376,N,11214.1787,W,0.22,176.02,090317,,,A*7F
$GPVTG,176.02,T,,M,0.22,N,0.40,K,A*3B
$GPGGA,114142.000,3325.6375,N,11214.1787,W,1,03,1.41,176.8,M,-26.8,M,,*5D
$GPGSA,A,2,29,15,27,,,,,,,,,,1.73,1.41,1.00*09
$GPGSV,2,1,05,21,73,058,,27,33,309,29,15,33,049,37,29,17,164,23*73
$GPGSV,2,2,05,20,,,28*74
$GPRMC,114142.000,A,3325.6375,N,11214.1787,W,0.13,158.11,090317,,,A*73
$GPVTG,158.11,T,,M,0.13,N,0.24,K,A*35
$GPGGA,114142.210,3325.6375,N,11214.1788,W,1,03,1.41,176.8,M,-26.8,M,,*51
$GPGSA,A,2,29,15,27,,,,,,,,,,1.72,1.41,1.00*08
$GPRMC,114142.210,A,3325.6375,N,11214.1788,W,0.11,157.60,090317,,,A*74
$GPVTG,157.60,T,,M,0.11,N,0.20,K,A*3A
$GPGGA,114144.000,3325.6371,N,11214.1789,W,1,03,1.40,176.8,M,-26.8,M,,*50
$GPGSA,A,2,29,15,27,,,,,,,,,,1.72,1.40,1.00*09
$GPRMC,114144.000,A,3325.6371,N,11214.1789,W,0.14,203.22,090317,,,A*75
$GPVTG,203.22,T,,M,0.14,N,0.25,K,A*3E
$GPGGA,114145.000,3325.6368,N,11214.1788,W,1,03,1.41,176.8,M,-26.8,M,,*59
$GPGSA,A,2,29,15,27,,,,,,,,,,1.73,1.41,1.00*09
$GPRMC,114145.000,A,3325.6368,N,11214.1788,W,0.17,192.88,090317,,,A*75
$GPVTG,192.88,T,,M,0.17,N,0.32,K,A*30
$GPGGA,114146.000,3325.6368,N,11214.1787,W,1,03,1.41,176.8,M,-26.8,M,,*55
$GPGSA,A,2,29,15,27,,,,,,,,,,1.73,1.41,1.00*09
$GPRMC,114146.000,A,3325.6368,N,11214.1787,W,0.14,22.42,090317,,,A*46
$GPVTG,22.42,T,,M,0.14,N,0.25,K,A*09
$GPGGA,114147.000,3325.6368,N,11214.1786,W,1,03,1.41,176.8,M,-26.8,M,,*55
$GPGSA,A,2,29,15,27,,,,,,,,,,1.73,1.41,1.00*09
$GPGSV,2,1,06,21,73,058,22,27,33,309,31,15,33,049,36,24,18,105,*7C
$GPGSV,2,2,06,29,17,164,25,20,,,25*43
$GPRMC,114147.000,A,3325.6368,N,11214.1786,W,0.26,35.24,090317,,,A*41
$GPVTG,35.24,T,,M,0.26,N,0.48,K,A*05
$GPGGA,114148.000,3325.6367,N,11214.1787,W,1,03,1.41,176.8,M,-26.8,M,,*54
$GPGSA,A,2,29,15,27,,,,,,,,,,1.73,1.41,1.00*09
$GPRMC,114148.000,A,3325.6367,N,11214.1787,W,0.22,1.02,090317,,,A*77
$GPVTG,1.02,T,,M,0.22,N,0.40,K,A*3A
$GPGGA,114148.209,3325.6366,N,11214.1787,W,1,03,21.70,176.8,M,-26.8,M,,*6E
$GPGSA,A,2,29,15,27,,,,,,,,,,99.99,21.70,99.99*3D
$GPRMC,114148.209,A,3325.6366,N,11214.1787,W,0.20,8.22,090317,,,A*74
$GPVTG,8.22,T,,M,0.20,N,0.36,K,A*32
$GPGGA,114150.000,3325.6366,N,11214.1787,W,1,03,21.71,176.8,M,-26.8,M,,*6D
$GPGSA,A,2,29,15,27,,,,,,,,,,99.99,21.71,99.99*3C
$GPRMC,114150.000,A,3325.6366,N,11214.1787,W,0.14,321.37,090317,,,A*7D
$GPVTG,321.37,T,,M,0.14,N,0.27,K,A*39
$GPGGA,114151.000,3325.6363,N,11214.1784,W,1,03,1.41,176.8,M,-26.8,M,,*5B
$GPGSA,A,2,29,15,27,,,,,,,,,,1.73,1.41,1.00*09
$GPRMC,114151.000,A,3325.6363,N,11214.1784,W,0.30,133.43,090317,,,A*7E
$GPVTG,133.43,T,,M,0.30,N,0.56,K,A*3B
$GPGGA,114152.000,3325.6361,N,11214.1782,W,1,03,1.41,176.8,M,-26.8,M,,*5C
$GPGSA,A,2,29,15,27,,,,,,,,,,1.73,1.41,1.00*09
$GPGSV,2,1,06,21,73,058,24,27,33,309,31,15,33,049,35,24,18,105,18*70
$GPGSV,2,2,06,29,17,164,23,20,,,24*44
$GPRMC,114152.000,A,3325.6361,N,11214.1782,W,0.32,147.93,090317,,,A*75
$GPVTG,147.93,T,,M,0.32,N,0.60,K,A*32
$GPGGA,114153.000,3325.6360,N,11214.1782,W,1,03,1.40,176.8,M,-26.8,M,,*5D
$GPGSA,A,2,29,15,27,,,,,,,,,,1.72,1.40,1.00*09
$GPRMC,114153.000,A,3325.6360,N,11214.1782,W,0.30,179.20,090317,,,A*72
$GPVTG,179.20,T,,M,0.30,N,0.55,K,A*33
$GPGGA,114154.000,3325.6359,N,11214.1781,W,1,03,1.41,176.8,M,-26.8,M,,*52
$GPGSA,A,2,29,15,27,,,,,,,,,,1.73,1.41,1.00*09
$GPRMC,114154.000,A,3325.6359,N,11214.1781,W,0.30,159.52,090317,,,A*7B
$GPVTG,159.52,T,,M,0.30,N,0.56,K,A*37
$GPGGA,114154.209,3325.6358,N,11214.1780,W,1,03,1.40,176.8,M,-26.8,M,,*58
$GPGSA,A,2,29,15,27,,,,,,,,,,1.72,1.40,1.00*09
$GPRMC,114154.209,A,3325.6358,N,11214.1780,W,0.27,151.38,090317,,,A*72
$GPVTG,151.38,T,,M,0.27,N,0.51,K,A*32
$GPGGA,114156.000,3325.6357,N,11214.1779,W,1,03,1.41,176.8,M,-26.8,M,,*59
$GPGSA,A,2,29,15,27,,,,,,,,,,1.73,1.41,1.00*09
$GPRMC,114156.000,A,3325.6357,N,11214.1779,W,0.12,158.01,090317,,,A*77
$GPVTG,158.01,T,,M,0.12,N,0.22,K,A*33
$GPGGA,114157.000,3325.6356,N,11214.1779,W,1,03,1.41,176.8,M,-26.8,M,,*59
$GPGSA,A,2,29,15,27,,,,,,,,,,1.73,1.41,1.00*09
$GPGSV,2,1,06,21,73,059,17,27,33,309,29,15,33,049,32,24,18,105,29*7D
$GPGSV,2,2,06,29,17,164,20,20,,,24*47
$GPRMC,114157.000,A,3325.6356,N,11214.1779,W,0.17,180.04,090317,,,A*72
$GPVTG,180.04,T,,M,0.17,N,0.32,K,A*37
$GPGGA,114158.000,3325.6353,N,11214.1779,W,1,03,1.41,176.8,M,-26.8,M,,*53
$GPGSA,A,2,29,15,27,,,,,,,,,,1.73,1.41,1.00*09
$GPRMC,114158.000,A,3325.6353,N,11214.1779,W,0.25,166.14,090317,,,A*70
$GPVTG,166.14,T,,M,0.25,N,0.47,K,A*3D
$GPGGA,114159.000,3325.6352,N,11214.1779,W,1,03,1.41,176.8,M,-26.8,M,,*53
$GPGSA,A,2,29,15,27,,,,,,,,,,1.73,1.41,1.00*09
$GPRMC,114159.000,A,3325.6352,N,11214.1779,W,0.24,177.86,090317,,,A*7A
$GPVTG,177.86,T,,M,0.24,N,0.44,K,A*34
$GPGGA,114200.000,3325.6351,N,11214.1780,W,1,03,1.41,176.8,M,-26.8,M,,*59
$GPGSA,A,2,29,15,27,,,,,,,,,,1.73,1.41,1.00*09
$GPRMC,114200.000,A,3325.6351,N,11214.1780,W,0.21,208.12,090317,,,A*73
$GPVTG,208.12,T,,M,0.21,N,0.38,K,A*3C
$GPGGA,114200.213,3325.6350,N,11214.1781,W,1,03,1.41,176.8,M,-26.8,M,,*59
$GPGSA,A,2,29,15,27,,,,,,,,,,1.72,1.41,1.00*08
$GPRMC,114200.213,A,3325.6350,N,11214.1781,W,0.22,207.77,090317,,,A*7C
$GPVTG,207.77,T,,M,0.22,N,0.40,K,A*3C
$GPGGA,114202.000,3325.6348,N,11214.1781,W,1,03,1.41,176.8,M,-26.8,M,,*52
$GPGSA,A,2,29,15,27,,,,,,,,,,1.72,1.41,1.00*08
$GPGSV,2,1,06,21,73,059,17,27,33,309,27,15,33,049,33,24,18,104,27*7D
$GPGSV,2,2,06,29,17,164,18,20,,,22*4A
$GPRMC,114202.000,A,3325.6348,N,11214.1781,W,0.24,199.75,090317,,,A*77
$GPVTG,199.75,T,,M,0.24,N,0.44,K,A*38
$GPGGA,114203.000,3325.6348,N,11214.1783,W,1,03,1.41,176.8,M,-26.8,M,,*51
$GPGSA,A,2,29,15,27,,,,,,,,,,1.72,1.41,1.00*08
$GPRMC,114203.000,A,3325.6348,N,11214.1783,W,0.36,230.08,090317,,,A*7D
$GPVTG,230.08,T,,M,0.36,N,0.67,K,A*30
$GPGGA,114204.000,3325.6347,N,11214.1785,W,1,03,1.41,176.8,M,-26.8,M,,*5F
$GPGSA,A,2,29,15,27,,,,,,,,,,1.72,1.41,1.00*08
$GPRMC,114204.000,A,3325.6347,N,11214.1785,W,0.41,239.27,090317,,,A*77
$GPVTG,239.27,T,,M,0.41,N,0.76,K,A*34
$GPGGA,114205.000,3325.6346,N,11214.1786,W,1,03,1.41,176.8,M,-26.8,M,,*5C
$GPGSA,A,2,29,15,27,,,,,,,,,,1.72,1.41,1.00*08
$GPRMC,114205.000,A,3325.6346,N,11214.1786,W,0.40,242.21,090317,,,A*7F
$GPVTG,242.21,T,,M,0.40,N,0.74,K,A*3D
$GPGGA,114206.000,3325.6346,N,11214.1786,W,1,03,1.41,176.8,M,-26.8,M,,*5F
$GPGSA,A,2,29,15,27,,,,,,,,,,1.73,1.41,1.00*09
$GPRMC,114206.000,A,3325.6346,N,11214.1786,W,0.32,246.31,090317,,,A*7C
$GPVTG,246.31,T,,M,0.32,N,0.59,K,A*32
$GPGGA,114206.212,3325.6346,N,11214.1786,W,1,03,1.40,176.8,M,-26.8,M,,*5F
$GPGSA,A,2,29,15,27,,,,,,,,,,1.72,1.40,1.00*09
$GPGSV,2,1,06,21,73,059,15,27,33,309,27,15,33,049,32,24,18,104,27*7E
$GPGSV,2,2,06,29,17,164,18,20,,,25*4D
$GPRMC,114206.212,A,3325.6346,N,11214.1786,W,0.29,248.78,090317,,,A*74
$GPVTG,248.78,T,,M,0.29,N,0.54,K,A*36
$GPGGA,114208.000,3325.6346,N,11214.1786,W,1,03,1.41,176.8,M,-26.8,M,,*51
$GPGSA,A,2,29,15,27,,,,,,,,,,1.72,1.41,1.00*08
$GPRMC,114208.000,A,3325.6346,N,11214.1786,W,0.18,250.81,090317,,,A*76
$GPVTG,250.81,T,,M,0.18,N,0.33,K,A*3A
$GPGGA,114209.000,3325.6345,N,11214.1785,W,1,03,1.41,176.8,M,-26.8,M,,*50
$GPGSA,A,2,29,15,27,,,,,,,,,,1.73,1.41,1.00*09
$GPRMC,114209.000,A,3325.6345,N,11214.1785,W,0.15,237.81,090317,,,A*7B
$GPVTG,237.81,T,,M,0.15,N,0.28,K,A*3C
$GPGGA,114210.000,3325.6345,N,11214.1782,W,1,03,1.40,176.8,M,-26.8,M,,*5E
$GPGSA,A,2,29,15,27,,,,,,,,,,1.72,1.40,1.00*09
$GPRMC,114210.000,A,3325.6345,N,11214.1782,W,0.06,184.52,090317,,,A*73
$GPVTG,184.52,T,,M,0.06,N,0.12,K,A*32
$GPGGA,114211.000,3325.6345,N,11214.1783,W,1,03,1.40,176.8,M,-26.8,M,,*5E
$GPGSA,A,2,29,15,27,,,,,,,,,,1.72,1.40,1.00*09
$GPRMC,114211.000,A,3325.6345,N,11214.1783,W,0.10,247.20,090317,,,A*7D
$GPVTG,247.20,T,,M,0.10,N,0.18,K,A*36
$GPGGA,114212.000,3325.6345,N,11214.1781,W,1,03,1.41,176.8,M,-26.8,M,,*5E
$GPGSA,A,2,29,15,27,,,,,,,,,,1.73,1.41,1.00*09
$GPGSV,2,1,07,21,73,059,12,27,33,309,28,15,33,049,31,24,18,104,25*76
$GPGSV,2,2,07,29,17,164,19,20,,,26,18,,,25*40
$GPRMC,114212.000,A,3325.6345,N,11214.1781,W,0.01,182.16,090317,,,A*73
$GPVTG,182.16,T,,M,0.01,N,0.02,K,A*32
$GPGGA,114212.208,3325.6344,N,11214.1781,W,1,03,1.40,176.8,M,-26.8,M,,*54
$GPGSA,A,2,29,15,27,,,,,,,,,,1.72,1.40,1.00*09
$GPRMC,114212.208,A,3325.6344,N,11214.1781,W,0.05,240.88,090317,,,A*76
$GPVTG,240.88,T,,M,0.05,N,0.10,K,A*3F
$GPGGA,114214.000,3325.6343,N,11214.1781,W,1,03,1.41,176.8,M,-26.8,M,,*5E
$GPGSA,A,2,29,15,27,,,,,,,,,,1.73,1.41,1.00*09
$GPRMC,114214.000,A,3325.6343,N,11214.1781,W,0.15,258.75,090317,,,A*77
$GPVTG,258.75,T,,M,0.15,N,0.27,K,A*31
$GPGGA,114215.000,3325.6342,N,11214.1781,W,1,03,1.40,176.8,M,-26.8,M,,*5F
$GPGSA,A,2,29,15,27,,,,,,,,,,1.72,1.40,1.00*09
$GPRMC,114215.000,A,3325.6342,N,11214.1781,W,0.14,248.18,090317,,,A*7C
$GPVTG,248.18,T,,M,0.14,N,0.27,K,A*3A
$GPGGA,114216.000,3325.6342,N,11214.1781,W,1,03,1.41,176.8,M,-26.8,M,,*5D
$GPGSA,A,2,29,15,27,,,,,,,,,,1.72,1.41,1.00*08
$GPRMC,114216.000,A,3325.6342,N,11214.1781,W,0.13,238.37,090317,,,A*72
$GPVTG,238.37,T,,M,0.13,N,0.24,K,A*34
$GPGGA,114217.000,3325.6340,N,11214.1783,W,1,03,1.40,176.8,M,-26.8,M,,*5D
$GPGSA,A,2,29,15,27,,,,,,,,,,1.72,1.40,1.00*09
$GPGSV,2,1,07,21,73,059,13,27,33,309,28,15,33,049,31,24,18,104,26*74
$GPGSV,2,2,07,29,17,164,18,20,,,24,18,,,26*40
$GPRMC,114217.000,A,3325.6340,N,11214.1783,W,0.27,237.73,090317,,,A*7B
$GPVTG,237.73,T,,M,0.27,N,0.49,K,A*37
$GPGGA,114218.000,3325.6337,N,11214.1783,W,1,03,1.40,176.8,M,-26.8,M,,*52
$GPGSA,A,2,29,15,27,,,,,,,,,,1.72,1.40,1.00*09
$GPRMC,114218.000,A,3325.6337,N,11214.1783,W,0.31,217.86,090317,,,A*7B
$GPVTG,217.86,T,,M,0.31,N,0.57,K,A*37
$GPGGA,114218.208,3325.6334,N,11214.1784,W,1,03,1.40,176.8,M,-26.8,M,,*5C
$GPGSA,A,2,29,15,27,,,,,,,,,,1.72,1.40,1.00*09
$GPRMC,114218.208,A,3325.6334,N,11214.1784,W,0.41,215.93,090317,,,A*74
$GPVTG,215.93,T,,M,0.41,N,0.76,K,A*35
$GPGGA,114220.000,3325.6330,N,11214.1782,W,1,03,1.41,176.8,M,-26.8,M,,*5E
$GPGSA,A,2,29,15,27,,,,,,,,,,1.73,1.41,1.00*09
$GPRMC,114220.000,A,3325.6330,N,11214.1782,W,0.42,177.99,090317,,,A*79
$GPVTG,177.99,T,,M,0.42,N,0.78,K,A*35
$GPGGA,114221.000,3325.6325,N,11214.1781,W,1,03,1.40,176.8,M,-26.8,M,,*59
$GPGSA,A,2,29,15,27,,,,,,,,,,1.72,1.40,1.00*09
$GPRMC,114221.000,A,3325.6325,N,11214.1781,W,0.58,175.71,090317,,,A*70
$GPVTG,175.71,T,,M,0.58,N,1.07,K,A*33
$GPGGA,114222.000,3325.6320,N,11214.1781,W,1,03,1.40,176.8,M,-26.8,M,,*5F
$GPGSA,A,2,29,15,27,,,,,,,,,,1.72,1.40,1.00*09
$GPGSV,2,1,07,21,73,059,16,27,33,309,27,15,33,049,33,24,18,104,26*7C
$GPGSV,2,2,07,29,17,164,14,20,,,22,18,,,26*4A
$GPRMC,114222.000,A,3325.6320,N,11214.1781,W,0.66,177.04,090317,,,A*7B
$GPVTG,177.04,T,,M,0.66,N,1.23,K,A*38
$GPGGA,114223.000,3325.6315,N,11214.1780,W,1,03,1.41,176.8,M,-26.8,M,,*58
$GPGSA,A,2,29,15,27,,,,,,,,,,1.72,1.41,1.00*08
$GPRMC,114223.000,A,3325.6315,N,11214.1780,W,0.74,173.14,090317,,,A*7B
$GPVTG,173.14,T,,M,0.74,N,1.38,K,A*34
$GPGGA,114224.000,3325.6311,N,11214.1780,W,1,03,1.40,176.8,M,-26.8,M,,*5A
$GPGSA,A,2,29,15,27,,,,,,,,,,1.72,1.40,1.00*09
$GPRMC,114224.000,A,3325.6311,N,11214.1780,W,0.79,175.39,090317,,,A*7C
$GPVTG,175.39,T,,M,0.79,N,1.46,K,A*39
$GPGGA,114224.208,3325.6309,N,11214.1781,W,1,03,1.40,176.8,M,-26.8,M,,*58
$GPGSA,A,2,29,15,27,,,,,,,,,,1.72,1.40,1.00*09
$GPRMC,114224.208,A,3325.6309,N,11214.1781,W,0.81,177.64,090317,,,A*73
$GPVTG,177.64,T,,M,0.81,N,1.51,K,A*32
$GPGGA,114226.000,3325.6305,N,11214.1780,W,1,03,1.40,176.8,M,-26.8,M,,*5D
$GPGSA,A,2,29,15,27,,,,,,,,,,1.72,1.40,1.00*09
$GPRMC,114226.000,A,3325.6305,N,11214.1780,W,0.77,175.99,090317,,,A*7F
$GPVTG,175.99,T,,M,0.77,N,1.43,K,A*38
$GPGGA,114227.000,3325.6302,N,11214.1781,W,1,03,1.40,176.8,M,-26.8,M,,*5A
$GPGSA,A,2,29,15,27,,,,,,,,,,1.72,1.40,1.00*09
$GPGSV,2,1,07,21,73,059,17,27,33,309,26,15,33,049,34,24,18,104,26*7B
$GPGSV,2,2,07,29,17,164,12,20,,,22,18,,,25*4F
$GPRMC,114227.000,A,3325.6302,N,11214.1781,W,0.79,182.92,090317,,,A*75
$GPVTG,182.92,T,,M,0.79,N,1.46,K,A*30
$GPGGA,114228.000,3325.6299,N,11214.1783,W,1,03,1.40,176.8,M,-26.8,M,,*54
$GPGSA,A,2,29,15,27,,,,,,,,,,1.72,1.40,1.00*09
$GPRMC,114228.000,A,3325.6299,N,11214.1783,W,0.76,193.42,090317,,,A*79
$GPVTG,193.42,T,,M,0.76,N,1.40,K,A*34
$GPGGA,114229.000,3325.6297,N,11214.1783,W,1,03,1.40,176.8,M,-26.8,M,,*5B
$GPGSA,A,2,29,15,27,,,,,,,,,,1.72,1.40,1.00*09
$GPRMC,114229.000,A,3325.6297,N,11214.1783,W,0.76,197.69,090317,,,A*7B
$GPVTG,197.69,T,,M,0.76,N,1.41,K,A*38
$GPGGA,114230.000,3325.6296,N,11214.1781,W,1,03,1.40,176.8,M,-26.8,M,,*50
$GPGSA,A,2,29,15,27,,,,,,,,,,1.72,1.40,1.00*09
$GPRMC,114230.000,A,3325.6296,N,11214.1781,W,0.67,186.22,090317,,,A*7F
$GPVTG,186.22,T,,M,0.67,N,1.23,K,A*33
$GPGGA,114230.208,3325.6293,N,11214.1782,W,1,04,1.39,177.9,M,-26.8,M,,*55
$GPGSA,A,3,29,15,27,18,,,,,,,,,1.68,1.39,0.94*08
$GPRMC,114230.208,A,3325.6293,N,11214.1782,W,0.62,186.78,090317,,,A*79
$GPVTG,186.78,T,,M,0.62,N,1.15,K,A*3C
$GPGGA,114232.000,3325.6285,N,11214.1785,W,1,04,1.40,178.8,M,-26.8,M,,*5D
$GPGSA,A,3,29,15,27,18,,,,,,,,,1.68,1.40,0.94*06
$GPGSV,2,1,08,21,73,060,17,18,68,343,25,51,50,171,,27,33,309,27*7D
$GPGSV,2,2,08,15,33,049,33,24,18,104,26,29,17,164,12,20,,,24*4F
$GPRMC,114232.000,A,3325.6285,N,11214.1785,W,0.57,177.81,090317,,,A*7F
$GPVTG,177.81,T,,M,0.57,N,1.05,K,A*33
$GPGGA,114233.000,3325.6281,N,11214.1787,W,1,04,1.40,179.0,M,-26.8,M,,*53
$GPGSA,A,3,29,15,27,18,,,,,,,,,1.69,1.40,0.94*07
$GPRMC,114233.000,A,3325.6281,N,11214.1787,W,0.58,190.22,090317,,,A*77
$GPVTG,190.22,T,,M,0.58,N,1.08,K,A*31
$GPGGA,114234.000,3325.6277,N,11214.1786,W,1,04,1.39,179.3,M,-26.8,M,,*51
$GPGSA,A,3,29,15,27,18,,,,,,,,,1.68,1.39,0.94*08
$GPRMC,114234.000,A,3325.6277,N,11214.1786,W,0.55,170.27,090317,,,A*7E
$GPVTG,170.27,T,,M,0.55,N,1.01,K,A*3E
$GPGGA,114235.000,3325.6274,N,11214.1788,W,1,04,1.39,179.5,M,-26.8,M,,*5B
$GPGSA,A,3,29,15,27,18,,,,,,,,,1.68,1.39,0.94*08
$GPRMC,114235.000,A,3325.6274,N,11214.1788,W,0.51,181.10,090317,,,A*7C
$GPVTG,181.10,T,,M,0.51,N,0.94,K,A*3D
$GPGGA,114236.000,3325.6269,N,11214.1787,W,1,04,1.39,179.8,M,-26.8,M,,*56
$GPGSA,A,3,29,15,27,18,,,,,,,,,1.68,1.39,0.94*08
$GPRMC,114236.000,A,3325.6269,N,11214.1787,W,0.51,170.14,090317,,,A*76
$GPVTG,170.14,T,,M,0.51,N,0.94,K,A*37
$GPGGA,114237.000,3325.6265,N,11214.1788,W,1,04,1.39,180.1,M,-26.8,M,,*5B
$GPGSA,A,3,29,15,27,18,,,,,,,,,1.68,1.39,0.94*08
$GPGSV,2,1,08,21,73,060,15,18,68,343,25,51,50,171,,27,33,309,27*7F
$GPGSV,2,2,08,15,33,049,33,24,18,104,25,29,17,164,14,20,,,25*4B
$GPRMC,114237.000,A,3325.6265,N,11214.1788,W,0.57,175.22,090317,,,A*72
$GPVTG,175.22,T,,M,0.57,N,1.06,K,A*3B
$GPGGA,114238.000,3325.6258,N,11214.1793,W,1,04,1.40,180.4,M,-26.8,M,,*5B
$GPGSA,A,3,29,15,27,18,,,,,,,,,1.68,1.40,0.94*06
$GPRMC,114238.000,A,3325.6258,N,11214.1793,W,0.86,203.74,090317,,,A*74
$GPVTG,203.74,T,,M,0.86,N,1.58,K,A*3D
$GPGGA,114239.000,3325.6234,N,11214.1796,W,1,04,1.39,181.6,M,-26.8,M,,*58
$GPGSA,A,3,29,15,27,18,,,,,,,,,1.68,1.39,0.94*08
$GPRMC,114239.000,A,3325.6234,N,11214.1796,W,1.34,191.39,090317,,,A*73
$GPVTG,191.39,T,,M,1.34,N,2.48,K,A*36
$GPGGA,114240.000,3325.6212,N,11214.1799,W,1,04,1.40,182.7,M,-26.8,M,,*51
$GPGSA,A,3,29,15,27,18,,,,,,,,,1.69,1.40,0.94*07
$GPRMC,114240.000,A,3325.6212,N,11214.1799,W,1.69,185.86,090317,,,A*7F
$GPVTG,185.86,T,,M,1.69,N,3.13,K,A*30
$GPGGA,114241.000,3325.6224,N,11214.1800,W,1,04,1.39,183.5,M,-26.8,M,,*57
$GPGSA,A,3,29,15,27,18,,,,,,,,,1.68,1.39,0.94*08
$GPRMC,114241.000,A,3325.6224,N,11214.1800,W,1.26,187.95,090317,,,A*7F
$GPVTG,187.95,T,,M,1.26,N,2.34,K,A*3F
$GPGGA,114242.000,3325.6241,N,11214.1803,W,1,04,1.40,183.9,M,-26.8,M,,*56
$GPGSA,A,3,29,15,27,18,,,,,,,,,1.69,1.40,0.94*07
$GPGSV,2,1,08,21,73,060,19,18,68,343,27,51,50,171,34,27,33,309,29*78
$GPGSV,2,2,08,15,33,049,31,24,18,104,22,29,17,164,20,20,,,27*4B
$GPRMC,114242.000,A,3325.6241,N,11214.1803,W,0.79,197.09,090317,,,A*73
$GPVTG,197.09,T,,M,0.79,N,1.46,K,A*36
$GPGGA,114243.000,3325.6255,N,11214.1805,W,1,04,1.39,185.2,M,-26.8,M,,*57
$GPGSA,A,3,29,15,27,18,,,,,,,,,1.68,1.39,0.94*08
$GPRMC,114243.000,A,3325.6255,N,11214.1805,W,0.31,191.76,090317,,,A*73
$GPVTG,191.76,T,,M,0.31,N,0.57,K,A*35
$GPGGA,114244.000,3325.6262,N,11214.1806,W,1,04,1.40,186.4,M,-26.8,M,,*5C
$GPGSA,A,3,29,15,27,18,,,,,,,,,1.69,1.40,0.94*07
$GPRMC,114244.000,A,3325.6262,N,11214.1806,W,0.21,234.03,090317,,,A*7C
$GPVTG,234.03,T,,M,0.21,N,0.39,K,A*32
$GPGGA,114245.000,3325.6265,N,11214.1808,W,1,04,1.39,187.6,M,-26.8,M,,*59
$GPGSA,A,3,29,15,27,18,,,,,,,,,1.68,1.39,0.94*08
$GPRMC,114245.000,A,3325.6265,N,11214.1808,W,0.22,264.05,090317,,,A*74
$GPVTG,264.05,T,,M,0.22,N,0.41,K,A*3D
$GPGGA,114246.000,3325.6264,N,11214.1808,W,1,04,1.39,188.7,M,-26.8,M,,*55
$GPGSA,A,3,29,15,27,18,,,,,,,,,1.68,1.39,0.94*08
$GPRMC,114246.000,A,3325.6264,N,11214.1808,W,0.12,208.90,090317,,,A*73
$GPVTG,208.90,T,,M,0.12,N,0.22,K,A*3D
$GPGGA,114247.000,3325.6262,N,11214.1810,W,1,04,1.39,189.8,M,-26.8,M,,*55
$GPGSA,A,3,29,15,27,18,,,,,,,,,1.68,1.39,0.94*08
$GPGSV,2,1,08,21,73,060,21,18,68,343,28,51,50,171,33,27,33,309,29*7B
$GPGSV,2,2,08,15,33,049,34,24,18,104,18,29,17,164,21,20,,,27*46
$GPRMC,114247.000,A,3325.6262,N,11214.1810,W,0.28,210.86,090317,,,A*7A
$GPVTG,210.86,T,,M,0.28,N,0.52,K,A*3D
$GPGGA,114248.000,3325.6266,N,11214.1810,W,1,04,1.40,190.1,M,-26.8,M,,*51
$GPGSA,A,3,29,15,27,18,,,,,,,,,1.69,1.40,0.94*07
$GPRMC,114248.000,A,3325.6266,N,11214.1810,W,0.19,200.22,090317,,,A*7C
$GPVTG,200.22,T,,M,0.19,N,0.35,K,A*31
$GPGGA,114249.000,3325.6263,N,11214.1813,W,1,04,1.40,191.1,M,-26.8,M,,*57
$GPGSA,A,3,29,15,27,18,,,,,,,,,1.69,1.40,0.94*07
$GPRMC,114249.000,A,3325.6263,N,11214.1813,W,0.44,213.61,090317,,,A*76
$GPVTG,213.61,T,,M,0.44,N,0.81,K,A*33
$GPGGA,114250.000,3325.6262,N,11214.1816,W,1,04,1.40,192.2,M,-26.8,M,,*5B
$GPGSA,A,3,29,15,27,18,,,,,,,,,1.69,1.40,0.94*07
$GPRMC,114250.000,A,3325.6262,N,11214.1816,W,0.38,214.78,090317,,,A*7E
$GPVTG,214.78,T,,M,0.38,N,0.71,K,A*38
$GPGGA,114251.000,3325.6264,N,11214.1818,W,1,04,1.39,192.5,M,-26.8,M,,*5B
$GPGSA,A,3,29,15,27,18,,,,,,,,,1.68,1.39,0.94*08
$GPRMC,114251.000,A,3325.6264,N,11214.1818,W,0.46,227.05,090317,,,A*74
$GPVTG,227.05,T,,M,0.46,N,0.85,K,A*30
$GPGGA,114252.000,3325.6262,N,11214.1819,W,1,04,1.39,193.5,M,-26.8,M,,*5E
$GPGSA,A,3,29,15,27,18,,,,,,,,,1.68,1.39,0.94*08
$GPGSV,2,1,08,21,73,060,22,18,68,343,27,51,50,171,33,27,33,309,28*76
$GPGSV,2,2,08,15,33,049,34,24,18,104,18,29,17,164,19,20,,,26*4C
$GPRMC,114252.000,A,3325.6262,N,11214.1819,W,0.49,206.15,090317,,,A*7D
$GPVTG,206.15,T,,M,0.49,N,0.92,K,A*3B
$GPGGA,114253.000,3325.6264,N,11214.1819,W,1,04,1.39,193.8,M,-26.8,M,,*54
$GPGSA,A,3,29,15,27,18,,,,,,,,,1.68,1.39,0.94*08
$GPRMC,114253.000,A,3325.6264,N,11214.1819,W,0.45,196.33,090317,,,A*78
$GPVTG,196.33,T,,M,0.45,N,0.84,K,A*3E
$GPGGA,114254.000,3325.6266,N,11214.1820,W,1,04,1.39,194.1,M,-26.8,M,,*55
$GPGSA,A,3,29,15,27,18,,,,,,,,,1.68,1.39,0.94*08
$GPRMC,114254.000,A,3325.6266,N,11214.1820,W,0.26,191.26,090317,,,A*71
$GPVTG,191.26,T,,M,0.26,N,0.49,K,A*39
$GPGGA,114255.000,3325.6272,N,11214.1824,W,1,05,1.18,194.9,M,-26.8,M,,*5F
$GPGSA,A,3,29,15,27,20,18,,,,,,,,1.51,1.18,0.93*04
$GPRMC,114255.000,A,3325.6272,N,11214.1824,W,0.11,6.22,090317,,,A*7E
$GPVTG,6.22,T,,M,0.11,N,0.20,K,A*39
$GPGGA,114256.000,3325.6261,N,11214.1861,W,1,05,1.33,195.4,M,-26.8,M,,*5A
$GPGSA,A,3,29,15,27,20,18,,,,,,,,2.87,1.33,2.54*0C
$GPRMC,114256.000,A,3325.6261,N,11214.1861,W,0.24,15.90,090317,,,A*43
$GPVTG,15.90,T,,M,0.24,N,0.45,K,A*07
$GPGGA,114257.000,3325.6268,N,11214.1870,W,1,05,1.18,195.9,M,-26.8,M,,*56
$GPGSA,A,3,29,15,27,20,18,,,,,,,,1.51,1.18,0.93*04
$GPGSV,2,1,08,21,73,060,23,18,68,343,24,51,50,171,33,27,33,309,26*7A
$GPGSV,2,2,08,15,33,049,34,20,19,063,26,24,18,104,17,29,17,164,18*7F
$GPRMC,114257.000,A,3325.6268,N,11214.1870,W,1.58,28.55,090317,,,A*46
$GPVTG,28.55,T,,M,1.58,N,2.93,K,A*03
$GPGGA,114258.000,3325.6272,N,11214.1867,W,1,05,1.18,196.5,M,-26.8,M,,*5B
$GPGSA,A,3,29,15,27,20,18,,,,,,,,1.51,1.18,0.93*04
$GPRMC,114258.000,A,3325.6272,N,11214.1867,W,3.00,13.41,090317,,,A*46
$GPVTG,13.41,T,,M,3.00,N,5.56,K,A*0F
$GPGGA,114259.000,3325.6294,N,11214.1890,W,1,05,1.32,199.6,M,-26.8,M,,*5E
$GPGSA,A,3,29,15,27,20,18,,,,,,,,2.86,1.32,2.54*0C
$GPRMC,114259.000,A,3325.6294,N,11214.1890,W,2.86,0.99,090317,,,A*7F
$GPVTG,0.99,T,,M,2.86,N,5.30,K,A*37
$GPGGA,114300.000,3325.6302,N,11214.1890,W,1,05,1.33,201.1,M,-26.8,M,,*59
$GPGSA,A,3,29,15,27,20,18,,,,,,,,2.87,1.33,2.54*0C
$GPRMC,114300.000,A,3325.6302,N,11214.1890,W,2.63,353.58,090317,,,A*7F
$GPVTG,353.58,T,,M,2.63,N,4.87,K,A*39
$GPGGA,114301.000,3325.6302,N,11214.1890,W,1,05,1.33,202.5,M,-26.8,M,,*5F
$GPGSA,A,3,29,15,27,20,18,,,,,,,,2.87,1.33,2.54*0C
$GPRMC,114301.000,A,3325.6302,N,11214.1890,W,1.61,354.14,090317,,,A*70
$GPVTG,354.14,T,,M,1.61,N,2.98,K,A*3F
$GPGGA,114302.000,3325.6300,N,11214.1888,W,1,05,1.33,203.3,M,-26.8,M,,*50
$GPGSA,A,3,29,15,27,20,18,,,,,,,,2.87,1.33,2.54*0C
$GPGSV,2,1,08,21,73,060,19,18,68,343,28,51,50,171,34,27,33,309,28*76
$GPGSV,2,2,08,15,33,048,34,20,19,063,27,24,18,104,,29,17,164,18*79
$GPRMC,114302.000,A,3325.6300,N,11214.1888,W,1.15,337.12,090317,,,A*78
$GPVTG,337.12,T,,M,1.15,N,2.14,K,A*3B
$GPGGA,114303.000,3325.6296,N,11214.1889,W,1,05,1.18,204.8,M,-26.8,M,,*5B
$GPGSA,A,3,29,15,27,20,18,,,,,,,,1.51,1.18,0.93*04
$GPRMC,114303.000,A,3325.6296,N,11214.1889,W,0.38,317.45,090317,,,A*78
$GPVTG,317.45,T,,M,0.38,N,0.71,K,A*34
$GPGGA,114304.000,3325.6292,N,11214.1900,W,1,05,1.18,207.5,M,-26.8,M,,*56
$GPGSA,A,3,29,15,27,20,18,,,,,,,,1.50,1.18,0.93*05
$GPRMC,114304.000,A,3325.6292,N,11214.1900,W,0.31,272.26,090317,,,A*75
$GPVTG,272.26,T,,M,0.31,N,0.57,K,A*3E
$GPGGA,114305.000,3325.6290,N,11214.1903,W,1,05,1.18,208.9,M,-26.8,M,,*55
$GPGSA,A,3,29,15,27,20,18,,,,,,,,1.50,1.18,0.93*05
$GPRMC,114305.000,A,3325.6290,N,11214.1903,W,0.45,226.40,090317,,,A*77
$GPVTG,226.40,T,,M,0.45,N,0.83,K,A*35
$GPGGA,114306.000,3325.6290,N,11214.1905,W,1,05,1.18,210.2,M,-26.8,M,,*52
$GPGSA,A,3,29,15,27,20,18,,,,,,,,1.50,1.18,0.93*05
$GPRMC,114306.000,A,3325.6290,N,11214.1905,W,0.20,1.46,090317,,,A*70
$GPVTG,1.46,T,,M,0.20,N,0.36,K,A*39
$GPGGA,114307.000,3325.6291,N,11214.1908,W,1,05,1.33,211.5,M,-26.8,M,,*50
$GPGSA,A,3,29,15,27,20,18,,,,,,,,2.87,1.33,2.54*0C
$GPGSV,2,1,08,21,73,060,17,18,68,343,29,51,50,171,32,27,33,309,26*71
$GPGSV,2,2,08,15,33,048,34,20,19,063,26,24,18,104,20,29,17,164,19*7B
$GPRMC,114307.000,A,3325.6291,N,11214.1908,W,0.30,345.82,090317,,,A*77
$GPVTG,345.82,T,,M,0.30,N,0.56,K,A*35
$GPGGA,114308.000,3325.6289,N,11214.1911,W,1,05,1.33,212.7,M,-26.8,M,,*5F
$GPGSA,A,3,29,15,27,20,18,,,,,,,,2.87,1.33,2.54*0C
$GPRMC,114308.000,A,3325.6289,N,11214.1911,W,0.42,317.81,090317,,,A*78
$GPVTG,317.81,T,,M,0.42,N,0.77,K,A*37
$GPGGA,114309.000,3325.6286,N,11214.1913,W,1,05,1.18,213.9,M,-26.8,M,,*55
$GPGSA,A,3,29,15,27,20,18,,,,,,,,1.50,1.18,0.93*05
$GPRMC,114309.000,A,3325.6286,N,11214.1913,W,0.32,288.07,090317,,,A*7A
$GPVTG,288.07,T,,M,0.32,N,0.59,K,A*35
$GPGGA,114310.000,3325.6285,N,11214.1912,W,1,05,1.18,214.6,M,-26.8,M,,*57
$GPGSA,A,3,29,15,27,20,18,,,,,,,,1.50,1.18,0.93*05
$GPRMC,114310.000,A,3325.6285,N,11214.1912,W,0.46,47.91,090317,,,A*4D
$GPVTG,47.91,T,,M,0.46,N,0.85,K,A*09
$GPGGA,114311.000,3325.6283,N,11214.1913,W,1,05,1.18,215.8,M,-26.8,M,,*5E
$GPGSA,A,3,29,15,27,20,18,,,,,,,,1.51,1.18,0.93*04
$GPRMC,114311.000,A,3325.6283,N,11214.1913,W,0.17,112.91,090317,,,A*7E
$GPVTG,112.91,T,,M,0.17,N,0.31,K,A*33
$GPGGA,114312.000,3325.6280,N,11214.1915,W,1,05,1.18,216.9,M,-26.8,M,,*5A
$GPGSA,A,3,29,15,27,20,18,,,,,,,,1.50,1.18,0.93*05
$GPGSV,2,1,08,21,73,061,16,18,68,343,28,51,50,171,32,27,33,309,26*70
$GPGSV,2,2,08,15,33,048,34,20,19,063,25,24,18,104,19,29,17,164,19*72
$GPRMC,114312.000,A,3325.6280,N,11214.1915,W,0.13,282.44,090317,,,A*7E
$GPVTG,282.44,T,,M,0.13,N,0.25,K,A*30
$GPGGA,114313.000,3325.6277,N,11214.1913,W,1,05,1.18,218.1,M,-26.8,M,,*53
$GPGSA,A,3,29,15,27,20,18,,,,,,,,1.50,1.18,0.93*05
$GPRMC,114313.000,A,3325.6277,N,11214.1913,W,0.20,95.55,090317,,,A*45
$GPVTG,95.55,T,,M,0.20,N,0.37,K,A*07
$GPGGA,114314.000,3325.6277,N,11214.1916,W,1,05,1.18,219.2,M,-26.8,M,,*53
$GPGSA,A,3,29,15,27,20,18,,,,,,,,1.50,1.18,0.93*05
$GPRMC,114314.000,A,3325.6277,N,11214.1916,W,0.24,322.83,090317,,,A*77
$GPVTG,322.83,T,,M,0.24,N,0.45,K,A*32
$GPGGA,114315.000,3325.6276,N,11214.1920,W,1,05,1.18,221.0,M,-26.8,M,,*5F
$GPGSA,A,3,29,15,27,20,18,,,,,,,,1.50,1.18,0.93*05
$GPRMC,114315.000,A,3325.6276,N,11214.1920,W,0.22,45.73,090317,,,A*49
$GPVTG,45.73,T,,M,0.22,N,0.41,K,A*0D
$GPGGA,114316.000,3325.6273,N,11214.1925,W,1,05,1.18,222.7,M,-26.8,M,,*58
$GPGSA,A,3,29,15,27,20,18,,,,,,,,1.50,1.18,0.93*05
$GPRMC,114316.000,A,3325.6273,N,11214.1925,W,0.46,233.01,090317,,,A*7E
$GPVTG,233.01,T,,M,0.46,N,0.86,K,A*32
$GPGGA,114317.000,3325.6272,N,11214.1925,W,1,05,1.18,223.8,M,-26.8,M,,*56
$GPGSA,A,3,29,15,27,20,18,,,,,,,,1.51,1.18,0.93*04
$GPGSV,2,1,08,21,73,061,23,18,68,343,29,51,50,171,33,27,33,308,26*77
$GPGSV,2,2,08,15,33,048,36,20,19,063,26,24,18,104,18,29,17,164,19*72
$GPRMC,114317.000,A,3325.6272,N,11214.1925,W,0.13,12.80,090317,,,A*46
$GPVTG,12.80,T,,M,0.13,N,0.23,K,A*05
$GPGGA,114318.000,3325.6271,N,11214.1927,W,1,05,1.33,225.2,M,-26.8,M,,*5D
$GPGSA,A,3,29,15,27,20,18,,,,,,,,2.87,1.33,2.54*0C
$GPRMC,114318.000,A,3325.6271,N,11214.1927,W,0.20,15.93,090317,,,A*4D
$GPVTG,15.93,T,,M,0.20,N,0.37,K,A*05
$GPGGA,114319.000,3325.6270,N,11214.1932,W,1,05,1.18,226.3,M,-26.8,M,,*52
$GPGSA,A,3,29,15,27,20,18,,,,,,,,1.51,1.18,0.93*04
$GPRMC,114319.000,A,3325.6270,N,11214.1932,W,0.75,221.71,090317,,,A*70
$GPVTG,221.71,T,,M,0.75,N,1.39,K,A*33
$GPGGA,114320.000,3325.6269,N,11214.1935,W,1,05,1.18,227.4,M,-26.8,M,,*51
$GPGSA,A,3,29,15,27,20,18,,,,,,,,1.50,1.18,0.93*05
$GPRMC,114320.000,A,3325.6269,N,11214.1935,W,1.50,219.11,090317,,,A*7E
$GPVTG,219.11,T,,M,1.50,N,2.78,K,A*3E
$GPGGA,114321.000,3325.6271,N,11214.1938,W,1,05,1.18,228.5,M,-26.8,M,,*5A
$GPGSA,A,3,29,15,27,20,18,,,,,,,,1.50,1.18,0.93*05
$GPRMC,114321.000,A,3325.6271,N,11214.1938,W,0.66,210.61,090317,,,A*71
$GPVTG,210.61,T,,M,0.66,N,1.23,K,A*39
$GPGGA,114322.000,3325.6271,N,11214.1938,W,1,05,1.18,229.2,M,-26.8,M,,*5F
$GPGSA,A,3,29,15,27,20,18,,,,,,,,1.51,1.18,0.93*04
$GPGSV,2,1,08,21,73,061,20,18,68,343,30,51,50,171,32,27,33,308,25*7E
$GPGSV,2,2,08,15,33,048,35,20,19,063,24,24,18,104,19,29,17,164,20*78
$GPRMC,114322.000,A,3325.6271,N,11214.1938,W,0.50,228.57,090317,,,A*79
$GPVTG,228.57,T,,M,0.50,N,0.92,K,A*39
$GPGGA,114323.000,3325.6271,N,11214.1938,W,1,05,1.18,229.9,M,-26.8,M,,*55
$GPGSA,A,3,29,15,27,20,18,,,,,,,,1.50,1.18,0.93*05
$GPRMC,114323.000,A,3325.6271,N,11214.1938,W,0.15,292.89,090317,,,A*7B
$GPVTG,292.89,T,,M,0.15,N,0.28,K,A*3B
$GPGGA,114324.000,3325.6271,N,11214.1938,W,1,05,1.18,230.5,M,-26.8,M,,*56
$GPGSA,A,3,29,15,27,20,18,,,,,,,,1.50,1.18,0.93*05
$GPRMC,114324.000,A,3325.6271,N,11214.1938,W,0.45,269.52,090317,,,A*7B
$GPVTG,269.52,T,,M,0.45,N,0.83,K,A*3D
$GPGGA,114325.000,3325.6273,N,11214.1941,W,1,05,1.18,230.9,M,-26.8,M,,*57
$GPGSA,A,3,29,15,27,20,18,,,,,,,,1.50,1.18,0.93*05
$GPRMC,114325.000,A,3325.6273,N,11214.1941,W,0.12,273.25,090317,,,A*7F
$GPVTG,273.25,T,,M,0.12,N,0.23,K,A*3E
$GPGGA,114326.000,3325.6273,N,11214.1942,W,1,05,1.18,230.9,M,-26.8,M,,*57
$GPGSA,A,3,29,15,27,20,18,,,,,,,,1.51,1.18,0.93*04
$GPRMC,114326.000,A,3325.6273,N,11214.1942,W,0.13,182.15,090317,,,A*70
$GPVTG,182.15,T,,M,0.13,N,0.24,K,A*36
$GPGGA,114327.000,3325.6272,N,11214.1942,W,1,05,1.18,231.0,M,-26.8,M,,*5F
$GPGSA,A,3,29,15,27,20,18,,,,,,,,1.51,1.18,0.93*04
$GPGSV,2,1,08,21,73,061,18,18,68,343,29,51,50,171,33,27,33,308,23*7A
$GPGSV,2,2,08,15,33,048,35,20,19,063,23,24,18,104,19,29,17,164,21*7E
$GPRMC,114327.000,A,3325.6272,N,11214.1942,W,0.38,30.30,090317,,,A*46
$GPVTG,30.30,T,,M,0.38,N,0.71,K,A*00
$GPGGA,114328.000,3325.6273,N,11214.1941,W,1,05,1.18,231.0,M,-26.8,M,,*52
$GPGSA,A,3,29,15,27,20,18,,,,,,,,1.51,1.18,0.93*04
$GPRMC,114328.000,A,3325.6273,N,11214.1941,W,0.91,12.09,090317,,,A*42
$GPVTG,12.09,T,,M,0.91,N,1.68,K,A*00
$GPGGA,114329.000,3325.6277,N,11214.1943,W,1,05,1.33,231.7,M,-26.8,M,,*5B
$GPGSA,A,3,29,15,27,20,18,,,,,,,,2.87,1.33,2.55*0D
$GPRMC,114329.000,A,3325.6277,N,11214.1943,W,1.17,8.76,090317,,,A*79
$GPVTG,8.76,T,,M,1.17,N,2.18,K,A*38
$GPGGA,114330.000,3325.6280,N,11214.1941,W,1,05,1.33,232.4,M,-26.8,M,,*59
$GPGSA,A,3,29,15,27,20,18,,,,,,,,2.87,1.33,2.55*0D
$GPRMC,114330.000,A,3325.6280,N,11214.1941,W,0.97,13.46,090317,,,A*4B
$GPVTG,13.46,T,,M,0.97,N,1.79,K,A*0C
$GPGGA,114331.000,3325.6281,N,11214.1942,W,1,05,1.33,233.4,M,-26.8,M,,*5B
$GPGSA,A,3,29,15,27,20,18,,,,,,,,2.87,1.33,2.55*0D
$GPRMC,114331.000,A,3325.6281,N,11214.1942,W,0.34,2.74,090317,,,A*70
$GPVTG,2.74,T,,M,0.34,N,0.64,K,A*39
$GPGGA,114332.000,3325.6282,N,11214.1942,W,1,05,1.33,234.0,M,-26.8,M,,*58
$GPGSA,A,3,29,15,27,20,18,,,,,,,,2.87,1.33,2.55*0D
$GPGSV,2,1,08,21,73,061,21,18,68,343,28,51,50,171,34,27,33,308,24*71
$GPGSV,2,2,08,15,33,048,34,20,19,063,21,24,18,104,25,29,17,164,22*71
$GPRMC,114332.000,A,3325.6282,N,11214.1942,W,0.47,276.60,090317,,,A*70
$GPVTG,276.60,T,,M,0.47,N,0.86,K,A*35
$GPGGA,114333.000,3325.6283,N,11214.1941,W,1,05,1.18,234.6,M,-26.8,M,,*54
$GPGSA,A,3,29,15,27,20,18,,,,,,,,1.51,1.18,0.93*04
$GPRMC,114333.000,A,3325.6283,N,11214.1941,W,0.25,278.20,090317,,,A*7D
$GPVTG,278.20,T,,M,0.25,N,0.46,K,A*37
$GPGGA,114334.000,3325.6284,N,11214.1940,W,1,05,1.18,235.2,M,-26.8,M,,*50
$GPGSA,A,3,29,15,27,20,18,,,,,,,,1.51,1.18,0.93*04
$GPRMC,114334.000,A,3325.6284,N,11214.1940,W,0.28,317.21,090317,,,A*78
$GPVTG,317.21,T,,M,0.28,N,0.52,K,A*36
$GPGGA,114335.000,3325.6285,N,11214.1941,W,1,05,1.18,235.3,M,-26.8,M,,*50
$GPGSA,A,3,29,15,27,20,18,,,,,,,,1.50,1.18,0.93*05
$GPRMC,114335.000,A,3325.6285,N,11214.1941,W,0.46,266.88,090317,,,A*75
$GPVTG,266.88,T,,M,0.46,N,0.85,K,A*30
$GPGGA,114336.000,3325.6285,N,11214.1943,W,1,05,1.18,235.3,M,-26.8,M,,*51
$GPGSA,A,3,29,15,27,20,18,,,,,,,,1.51,1.18,0.93*04
$GPRMC,114336.000,A,3325.6285,N,11214.1943,W,1.34,227.90,090317,,,A*7C
$GPVTG,227.90,T,,M,1.34,N,2.48,K,A*3B
$GPGGA,114337.000,3325.6284,N,11214.1946,W,1,05,1.18,235.9,M,-26.8,M,,*5E
$GPGSA,A,3,29,15,27,20,18,,,,,,,,1.50,1.18,0.93*05
$GPGSV,3,1,09,21,73,061,23,18,68,343,28,51,50,171,31,27,33,308,23*71
$GPGSV,3,2,09,15,33,048,36,20,19,063,21,24,18,104,24,29,17,164,22*72
$GPGSV,3,3,09,26,04,237,*46
$GPRMC,114337.000,A,3325.6284,N,11214.1946,W,1.04,215.57,090317,,,A*70
$GPVTG,215.57,T,,M,1.04,N,1.94,K,A*30
$GPGGA,114338.000,3325.6282,N,11214.1946,W,1,05,1.18,236.4,M,-26.8,M,,*59
$GPGSA,A,3,29,15,27,20,18,,,,,,,,1.51,1.18,0.93*04
$GPRMC,114338.000,A,3325.6282,N,11214.1946,W,1.36,183.11,090317,,,A*76
$GPVTG,183.11,T,,M,1.36,N,2.52,K,A*36
$GPGGA,114339.000,3325.6281,N,11214.1949,W,1,05,1.18,237.3,M,-26.8,M,,*52
$GPGSA,A,3,29,15,27,20,18,,,,,,,,1.50,1.18,0.93*05
$GPRMC,114339.000,A,3325.6281,N,11214.1949,W,0.67,156.63,090317,,,A*73
$GPVTG,156.63,T,,M,0.67,N,1.24,K,A*3C
$GPGGA,114340.000,3325.6283,N,11214.1954,W,1,05,1.18,238.1,M,-26.8,M,,*5F
$GPGSA,A,3,29,15,27,20,18,,,,,,,,1.50,1.18,0.93*05
$GPRMC,114340.000,A,3325.6283,N,11214.1954,W,0.57,8.32,090317,,,A*7E
$GPVTG,8.32,T,,M,0.57,N,1.06,K,A*31
$GPGGA,114341.000,3325.6285,N,11214.1956,W,1,05,1.33,239.0,M,-26.8,M,,*53
$GPGSA,A,3,29,15,27,20,18,,,,,,,,2.87,1.33,2.55*0D
$GPRMC,114341.000,A,3325.6285,N,11214.1956,W,1.40,23.70,090317,,,A*43
$GPVTG,23.70,T,,M,1.40,N,2.59,K,A*00
$GPGGA,114342.000,3325.6288,N,11214.1959,W,1,05,1.18,239.8,M,-26.8,M,,*53
$GPGSA,A,3,29,15,27,20,18,,,,,,,,1.50,1.18,0.93*05
$GPGSV,3,1,09,21,73,061,26,18,68,343,29,51,50,171,28,27,33,308,18*75
$GPGSV,3,2,09,15,33,048,36,20,19,063,21,24,18,104,25,29,17,164,19*7B
$GPGSV,3,3,09,26,04,237,*46
$GPRMC,114342.000,A,3325.6288,N,11214.1959,W,1.63,9.59,090317,,,A*70
$GPVTG,9.59,T,,M,1.63,N,3.02,K,A*3D
$GPGGA,114343.000,3325.6291,N,11214.1961,W,1,05,1.33,240.7,M,-26.8,M,,*59
$GPGSA,A,3,29,15,27,20,18,,,,,,,,2.87,1.33,2.55*0D
$GPRMC,114343.000,A,3325.6291,N,11214.1961,W,1.37,353.04,090317,,,A*77
$GPVTG,353.04,T,,M,1.37,N,2.53,K,A*3D
$GPGGA,114344.000,3325.6293,N,11214.1965,W,1,05,1.33,241.5,M,-26.8,M,,*5B
$GPGSA,A,3,29,15,27,20,18,,,,,,,,2.87,1.33,2.55*0D
$GPRMC,114344.000,A,3325.6293,N,11214.1965,W,1.02,339.74,090317,,,A*7B
$GPVTG,339.74,T,,M,1.02,N,1.88,K,A*35
$GPGGA,114345.000,3325.6292,N,11214.1965,W,1,05,1.18,242.4,M,-26.8,M,,*50
$GPGSA,A,3,29,15,27,20,18,,,,,,,,1.51,1.18,0.93*04
$GPRMC,114345.000,A,3325.6292,N,11214.1965,W,0.27,345.44,090317,,,A*75
$GPVTG,345.44,T,,M,0.27,N,0.50,K,A*3F
$GPGGA,114346.000,3325.6290,N,11214.1963,W,1,05,1.33,243.1,M,-26.8,M,,*5A
$GPGSA,A,3,29,15,27,20,18,,,,,,,,2.88,1.33,2.55*02
$GPRMC,114346.000,A,3325.6290,N,11214.1963,W,0.24,140.12,090317,,,A*75
$GPVTG,140.12,T,,M,0.24,N,0.44,K,A*3D
$GPGGA,114347.000,3325.6291,N,11214.1965,W,1,05,1.18,243.5,M,-26.8,M,,*51
$GPGSA,A,3,29,15,27,20,18,,,,,,,,1.51,1.18,0.93*04
$GPGSV,3,1,09,21,73,062,26,18,68,344,30,51,50,171,26,27,33,308,18*77
$GPGSV,3,2,09,15,33,048,36,20,19,063,21,24,18,104,25,29,17,164,18*7A
$GPGSV,3,3,09,26,04,237,*46
$GPRMC,114347.000,A,3325.6291,N,11214.1965,W,0.15,130.10,090317,,,A*74
$GPVTG,130.10,T,,M,0.15,N,0.28,K,A*30
$GPGGA,114348.000,3325.6292,N,11214.1967,W,1,05,1.18,243.9,M,-26.8,M,,*53
$GPGSA,A,3,29,15,27,20,18,,,,,,,,1.51,1.18,0.93*04
$GPRMC,114348.000,A,3325.6292,N,11214.1967,W,0.24,141.00,090317,,,A*7F
$GPVTG,141.00,T,,M,0.24,N,0.44,K,A*3F
$GPGGA,114349.000,3325.6291,N,11214.1967,W,1,05,1.18,243.9,M,-26.8,M,,*51
$GPGSA,A,3,29,15,27,20,18,,,,,,,,1.50,1.18,0.93*05
$GPRMC,114349.000,A,3325.6291,N,11214.1967,W,0.13,271.25,090317,,,A*7E
$GPVTG,271.25,T,,M,0.13,N,0.23,K,A*3D
$GPGGA,114350.000,3325.6291,N,11214.1967,W,1,05,1.18,243.9,M,-26.8,M,,*59
$GPGSA,A,3,29,15,27,20,18,,,,,,,,1.51,1.18,0.93*04
$GPRMC,114350.000,A,3325.6291,N,11214.1967,W,0.32,341.39,090317,,,A*7A
$GPVTG,341.39,T,,M,0.32,N,0.60,K,A*36
$GPGGA,114351.000,3325.6292,N,11214.1967,W,1,05,1.18,244.0,M,-26.8,M,,*55
$GPGSA,A,3,29,15,27,20,18,,,,,,,,1.51,1.18,0.93*04
$GPRMC,114351.000,A,3325.6292,N,11214.1967,W,0.68,340.70,090317,,,A*7B
$GPVTG,340.70,T,,M,0.68,N,1.27,K,A*37
$GPGGA,114352.000,3325.6302,N,11214.1968,W,1,05,1.18,244.8,M,-26.8,M,,*59
$GPGSA,A,3,29,15,27,20,18,,,,,,,,1.50,1.18,0.93*05
$GPGSV,3,1,09,21,73,062,22,18,68,344,29,51,50,171,30,27,33,308,22*75
$GPGSV,3,2,09,15,33,048,36,20,19,063,24,24,18,104,25,29,17,164,20*74
$GPGSV,3,3,09,26,04,237,*46
$GPRMC,114352.000,A,3325.6302,N,11214.1968,W,0.85,353.70,090317,,,A*7E
$GPVTG,353.70,T,,M,0.85,N,1.57,K,A*31
$GPGGA,114353.000,3325.6308,N,11214.1966,W,1,05,1.33,245.9,M,-26.8,M,,*55
$GPGSA,A,3,29,15,27,20,18,,,,,,,,2.88,1.33,2.55*02
$GPRMC,114353.000,A,3325.6308,N,11214.1966,W,0.34,249.50,090317,,,A*79
$GPVTG,249.50,T,,M,0.34,N,0.64,K,A*32
$GPGGA,114354.000,3325.6311,N,11214.1963,W,1,05,1.18,246.8,M,-26.8,M,,*54
$GPGSA,A,3,29,15,27,20,18,,,,,,,,1.50,1.18,0.93*05
$GPRMC,114354.000,A,3325.6311,N,11214.1963,W,0.85,168.46,090317,,,A*7E
$GPVTG,168.46,T,,M,0.85,N,1.57,K,A*3E
$GPGGA,114355.000,3325.6315,N,11214.1959,W,1,06,1.10,247.4,M,-26.8,M,,*5E
$GPGSA,A,3,29,15,27,20,24,18,,,,,,,1.44,1.10,0.93*0E
$GPRMC,114355.000,A,3325.6315,N,11214.1959,W,0.50,89.95,090317,,,A*4A
$GPVTG,89.95,T,,M,0.50,N,0.92,K,A*0E
$GPGGA,114356.000,3325.6318,N,11214.1961,W,1,06,1.10,247.6,M,-26.8,M,,*59
$GPGSA,A,3,29,15,27,20,24,18,,,,,,,1.44,1.10,0.93*0E
$GPRMC,114356.000,A,3325.6318,N,11214.1961,W,0.63,32.31,090317,,,A*41
$GPVTG,32.31,T,,M,0.63,N,1.17,K,A*0C
$GPGGA,114357.000,3325.6320,N,11214.1963,W,1,06,1.10,247.8,M,-26.8,M,,*5F
$GPGSA,A,3,29,15,27,20,24,18,,,,,,,1.44,1.10,0.93*0E
$GPGSV,3,1,09,21,73,062,21,18,68,344,28,51,50,171,31,27,33,308,23*77
$GPGSV,3,2,09,15,33,048,35,20,19,063,25,24,18,104,24,29,16,164,20*76
$GPGSV,3,3,09,26,04,237,*46
$GPRMC,114357.000,A,3325.6320,N,11214.1963,W,0.77,25.94,090317,,,A*45
$GPVTG,25.94,T,,M,0.77,N,1.43,K,A*01
$GPGGA,114358.000,3325.6324,N,11214.1963,W,1,06,1.10,248.0,M,-26.8,M,,*53
$GPGSA,A,3,29,15,27,20,24,18,,,,,,,1.44,1.10,0.93*0E
$GPRMC,114358.000,A,3325.6324,N,11214.1963,W,1.28,30.53,090317,,,A*4A
$GPVTG,30.53,T,,M,1.28,N,2.37,K,A*05
$GPGGA,114359.000,3325.6327,N,11214.1966,W,1,06,1.10,248.1,M,-26.8,M,,*55
$GPGSA,A,3,29,15,27,20,24,18,,,,,,,1.44,1.10,0.93*0E
$GPRMC,114359.000,A,3325.6327,N,11214.1966,W,0.81,16.09,090317,,,A*44
$GPVTG,16.09,T,,M,0.81,N,1.50,K,A*0E
$GPGGA,114400.000,3325.6328,N,11214.1966,W,2,06,1.10,248.3,M,-26.8,M,0000,0000*50
$GPGSA,A,3,29,15,27,20,24,18,,,,,,,1.44,1.10,0.93*0E
$GPRMC,114400.000,A,3325.6328,N,11214.1966,W,0.29,45.78,090317,,,D*47
$GPVTG,45.78,T,,M,0.29,N,0.53,K,D*0B
$GPGGA,114401.000,3325.6330,N,11214.1966,W,2,06,1.10,248.5,M,-26.8,M,0000,0000*5E
$GPGSA,A,3,29,15,27,20,24,18,,,,,,,1.44,1.10,0.93*0E
$GPRMC,114401.000,A,3325.6330,N,11214.1966,W,0.43,51.82,090317,,,D*43
$GPVTG,51.82,T,,M,0.43,N,0.81,K,D*08
$GPGGA,114402.000,3325.6332,N,11214.1968,W,2,06,1.10,248.6,M,-26.8,M,0000,0000*52
$GPGSA,A,3,29,15,27,20,24,18,,,,,,,1.44,1.10,0.93*0E
$GPGSV,3,1,09,21,73,062,20,18,68,344,28,51,50,171,31,27,33,308,18*7E
$GPGSV,3,2,09,15,33,048,34,20,19,063,23,24,18,104,23,29,16,164,20*76
$GPGSV,3,3,09,26,04,237,*46
$GPRMC,114402.000,A,3325.6332,N,11214.1968,W,0.12,349.25,090317,,,D*7F
$GPVTG,349.25,T,,M,0.12,N,0.22,K,D*32
$GPGGA,114403.000,3325.6333,N,11214.1969,W,2,06,1.26,248.8,M,-26.8,M,0000,0000*58
$GPGSA,A,3,29,15,27,20,24,18,,,,,,,2.85,1.26,2.55*0D
$GPRMC,114403.000,A,3325.6333,N,11214.1969,W,0.37,57.23,090317,,,D*43
$GPVTG,57.23,T,,M,0.37,N,0.68,K,D*01
$GPGGA,114404.000,3325.6337,N,11214.1973,W,2,06,1.10,249.0,M,-26.8,M,0000,0000*5C
$GPGSA,A,3,29,15,27,20,24,18,,,,,,,1.44,1.10,0.93*0E
$GPRMC,114404.000,A,3325.6337,N,11214.1973,W,0.07,41.47,090317,,,D*4D
